SALE TYPE,SOLD DATE,PROPERTY TYPE,ADDRESS,CITY,STATE OR PROVINCE,ZIP OR POSTAL CODE,PRICE,BEDS,BATHS,LOCATION,SQUARE FEET,LOT SIZE,YEAR BUILT,DAYS ON MARKET,$/SQUARE FEET,HOA/MONTH,STATUS,NEXT OPEN HOUSE START TIME,NEXT OPEN HOUSE END TIME,URL (SEE http://www.redfin.com/buy-a-home/comparative-market-analysis FOR INFO ON PRICING),SOURCE,MLS#,FAVORITE,INTERESTED,LATITUDE,LONGITUDE
MLS Listing,,Condo/Co-op,115 Diamond Cove Ter,San Francisco,CA,94134,899000,2,2.5,San Francisco,1336,8709,2012,4,673,389,Active,,,http://www.redfin.com/CA/San-Francisco/115-Diamond-Cove-Ter-94134/home/45438562,San Francisco MLS,421541370,N,Y,37.7130851,-122.3943406
MLS Listing,,Condo/Co-op,1 Baker St Unit 4A,SAN FRANCISCO,CA,94117,1348998,2,2.0,SAN FRANCISCO,1337,,1982,4,1009,875,Active,,,http://www.redfin.com/CA/San-Francisco/1-Baker-St-94117/unit-4A/home/598282,MLSListings,ML81840303,N,Y,37.770968,-122.4407319
MLS Listing,,Multi-Family (2-4 Unit),82 Landers St,San Francisco,CA,94114,2395000,3,3.0,San Francisco,2117,3125,1903,29,1131,,Active,,,http://www.redfin.com/CA/San-Francisco/82-Landers-St-94114/home/1093547,San Francisco MLS,421532622,N,Y,37.7665349,-122.4280219
MLS Listing,,Single Family Residential,542 Rhode Island St,San Francisco,CA,94107,2398000,3,2.0,San Francisco,,2500,1938,31,,,Active,,,http://www.redfin.com/CA/San-Francisco/542-Rhode-Island-St-94107/home/727244,San Francisco MLS,421531300,N,Y,37.7628828,-122.4026251
MLS Listing,,Condo/Co-op,5800 3Rd St #1211,San Francisco,CA,94124,680000,1,1.0,Portola District,817,,2010,66,832,432,Active,,,http://www.redfin.com/CA/San-Francisco/5800-3rd-St-94124/unit-1211/home/40625857,"bridgeMLS, Bay East AOR, or Contra Costa AOR",40938478,N,Y,37.7253452,-122.3948096
MLS Listing,,Condo/Co-op,855 Folsom St #510,San Francisco,CA,94107,950000,1,1.5,San Francisco,1030,55687,2001,69,922,722,Active,,,http://www.redfin.com/CA/San-Francisco/855-Folsom-St-94107/unit-510/home/12398153,San Francisco MLS,421520348,N,Y,37.7808956,-122.4019503
MLS Listing,,Condo/Co-op,1635 California St #24,San Francisco,CA,94109,1000000,2,2.0,San Francisco,915,,2005,101,1093,639,Active,,,http://www.redfin.com/CA/San-Francisco/1635-California-St-94109/unit-24/home/12277015,San Francisco MLS,511753,N,Y,37.7901978,-122.4213309
MLS Listing,,Single Family Residential,1330 Plymouth Ave,San Francisco,CA,94112,1999000,4,3.0,San Francisco,1985,4874,1923,1,1007,12,Active,,,http://www.redfin.com/CA/San-Francisco/1330-Plymouth-Ave-94112/home/1486677,San Francisco MLS,421542062,N,Y,37.7263601,-122.4562114
MLS Listing,,Single Family Residential,2744 Baker St,San Francisco,CA,94123,8995000,4,5.5,San Francisco,,2495,2020,1,,,Active,,,http://www.redfin.com/CA/San-Francisco/2744-Baker-St-94123/home/175010472,BAREIS,421541677,N,Y,37.7964383,-122.4454306
MLS Listing,,Condo/Co-op,1620 Fulton St,San Francisco,CA,94117,1395000,2,,San Francisco,1319,2556,1900,1,1058,100,Active,,,http://www.redfin.com/CA/San-Francisco/1620-Fulton-St-94117/home/110051739,San Francisco MLS,421542296,N,Y,37.7762711,-122.4436215
MLS Listing,,Single Family Residential,2707 Larkin St,San Francisco,CA,94109,11500000,4,7.0,San Francisco,5371,3713,1900,1,2141,,Active,,,http://www.redfin.com/CA/San-Francisco/2707-Larkin-St-94109/home/557159,San Francisco MLS,514141,N,Y,37.8030471,-122.4218397
MLS Listing,,Condo/Co-op,888 7th St #304,San Francisco,CA,94107,383277,1,1.0,San Francisco,535,95280,2007,1,716,385,Active,,,http://www.redfin.com/CA/San-Francisco/888-7th-St-94107/unit-304/home/17306051,San Francisco MLS,421542130,N,Y,37.7705534,-122.4004057
MLS Listing,,Multi-Family (2-4 Unit),1240 - 1244 Jones St,San Francisco,CA,94109,3300000,6,3.0,San Francisco,3540,1359,1908,1,932,,Active,,,http://www.redfin.com/CA/San-Francisco/1240-Jones-St-94109/home/1474634,San Francisco MLS,421540522,N,Y,37.7929965,-122.414187
MLS Listing,,Condo/Co-op,333 Beale St Unit 7A,San Francisco,CA,94105,1049000,1,1.0,San Francisco,873,75406,2015,1,1202,1156,Active,,,http://www.redfin.com/CA/San-Francisco/333-Beale-St-94105/unit-7A/home/110052455,San Francisco MLS,421542126,N,Y,37.7884937,-122.3918797
MLS Listing,,Single Family Residential,3526 19th St,San Francisco,CA,94110,4500000,4,4.5,San Francisco,3210,2500,2002,1,1402,,Active,,,http://www.redfin.com/CA/San-Francisco/3526-19th-St-94110/home/173631809,San Francisco MLS,421541979,N,Y,37.7602357,-122.4221026
MLS Listing,,Single Family Residential,245 Lakeshore Dr,San Francisco,CA,94132,1695000,3,,San Francisco,1774,3135,1955,1,955,,Active,,,http://www.redfin.com/CA/San-Francisco/245-Lakeshore-Dr-94132/home/1105660,San Francisco MLS,421541673,N,Y,37.7304836,-122.4972722
MLS Listing,,Condo/Co-op,1177 California St #1525,San Francisco,CA,94108,825000,1,1.0,San Francisco,653,,1978,1,1263,1102,Active,,,http://www.redfin.com/CA/San-Francisco/1177-California-St-94108/unit-1525/home/930091,San Francisco MLS,421541348,N,Y,37.7913209,-122.4137552
MLS Listing,,Multi-Family (2-4 Unit),1271 - 1273 7th Ave,San Francisco,CA,94122,1899000,5,3.0,San Francisco,3592,3000,1913,1,529,,Active,,,http://www.redfin.com/CA/San-Francisco/1271-7th-Ave-94122/home/626772,San Francisco MLS,421542218,N,Y,37.7646058,-122.4645353
MLS Listing,,Condo/Co-op,333 Bush St #4104,San Francisco,CA,94104,1500000,2,2.0,San Francisco,1382,,1987,1,1085,1522,Active,,,http://www.redfin.com/CA/San-Francisco/333-Bush-St-94104/unit-4104/home/978806,San Francisco MLS,421542291,N,Y,37.7906431,-122.4030566
MLS Listing,,Single Family Residential,438 17th Ave,San Francisco,CA,94121,2250000,3,2.5,San Francisco,2380,3000,1916,1,945,,Active,,,http://www.redfin.com/CA/San-Francisco/438-17th-Ave-94121/home/612546,San Francisco MLS,421538193,N,Y,37.779674,-122.475779
MLS Listing,,Condo/Co-op,333 1st St #1607,San Francisco,CA,94105,1298000,2,2.0,San Francisco,950,38571,2004,1,1366,928,Active,,,http://www.redfin.com/CA/San-Francisco/333-1st-St-94105/unit-1607/home/148061430,San Francisco MLS,421536208,N,Y,37.7872383,-122.3940289
MLS Listing,,Condo/Co-op,1100 Sacramento St #802,San Francisco,CA,94108,5500000,3,3.0,San Francisco,2526,14514,1925,1,2177,3049,Active,,,http://www.redfin.com/CA/San-Francisco/1100-Sacramento-St-94108/unit-802/home/175008808,San Francisco MLS,421542259,N,Y,37.7929478,-122.4114198
MLS Listing,,Multi-Family (2-4 Unit),40 Lundys Ln,San Francisco,CA,94110,1150000,3,2.0,San Francisco,1390,1746,1900,1,827,,Active,,,http://www.redfin.com/CA/San-Francisco/40-Lundys-Ln-94110/home/1598451,San Francisco MLS,421542166,N,Y,37.7446806,-122.4185656
MLS Listing,,Condo/Co-op,480 Mission Bay Blvd #313,San Francisco,CA,94158,1599000,2,2.0,San Francisco,1220,122891,2012,2,1311,875,Active,,,http://www.redfin.com/CA/San-Francisco/480-Mission-Bay-Blvd-N-94158/unit-313/home/40626109,San Francisco MLS,421542101,N,Y,37.7713607,-122.3890283
MLS Listing,,Multi-Family (2-4 Unit),1108 Treat,San Francisco,CA,94107,1225000,3,,San Francisco,2075,1563,,2,590,,Active,,,http://www.redfin.com/CA/San-Francisco/1108-Treat-Ave-94110/unit-1108/home/174777358,San Francisco MLS,421542171,N,Y,37.7521746,-122.4131592
MLS Listing,,Condo/Co-op,692 30th Ave,San Francisco,CA,94121,995000,2,1.0,San Francisco,1405,1440,1939,2,708,259,Active,,,http://www.redfin.com/CA/San-Francisco/692-30th-Ave-94121/home/2018598,San Francisco MLS,421541792,N,Y,37.776238,-122.489649
MLS Listing,,Single Family Residential,731 Douglass St,San Francisco,CA,94114,3750000,4,3.5,San Francisco,3526,1341,1999,2,1064,,Active,,,http://www.redfin.com/CA/San-Francisco/731-Douglass-St-94114/home/1620999,San Francisco MLS,421542106,N,Y,37.7514207,-122.4383302
MLS Listing,,Condo/Co-op,1875 Mission St #109,San Francisco,CA,94103,1200000,2,2.0,San Francisco,1272,11181,2014,2,943,688,Active,,,http://www.redfin.com/CA/San-Francisco/1875-Mission-St-94103/unit-109/home/67980185,San Francisco MLS,421541864,N,Y,37.7671306,-122.4194657
MLS Listing,,Single Family Residential,918 Kansas St,San Francisco,CA,94107,2995000,4,3.5,San Francisco,3200,5505,1957,2,936,,Active,,,http://www.redfin.com/CA/San-Francisco/918-Kansas-St-94107/home/1510540,San Francisco MLS,421540266,N,Y,37.7581133,-122.4032115
MLS Listing,,Condo/Co-op,301 Rhode Island St Unit B6,San Francisco,CA,94103,1033000,1,2.0,San Francisco,1291,23254,1999,2,800,785,Active,,,http://www.redfin.com/CA/San-Francisco/301-Rhode-Island-St-94103/unit-B6/home/102815353,San Francisco MLS,421540370,N,Y,37.7654153,-122.4021001
MLS Listing,,Condo/Co-op,101 Crescent Way #2310,San Francisco,CA,94134,799000,2,2.0,San Francisco,984,42325,2001,2,,533,Active,,,http://www.redfin.com/CA/San-Francisco/101-Crescent-Way-94134/unit-2310/home/22889854,MetroList,421537390,N,Y,37.7108999,-122.389259
MLS Listing,,Condo/Co-op,129 Ellert St,San Francisco,CA,94110,899000,1,1.0,San Francisco,,2809,1910,2,,,Active,,,http://www.redfin.com/CA/San-Francisco/129-Ellert-St-94110/home/1775045,San Francisco MLS,421541093,N,Y,37.7385512,-122.4170613
MLS Listing,,Condo/Co-op,571 Waller St,San Francisco,CA,94117,1350000,2,1.5,San Francisco,1441,2250,1900,2,937,133,Active,,,http://www.redfin.com/CA/San-Francisco/571-Waller-St-94117/home/11743032,San Francisco MLS,421539944,N,Y,37.770607,-122.432977
MLS Listing,,Single Family Residential,1526 Palou Ave,SAN FRANCISCO,CA,94124,998000,4,3.0,SAN FRANCISCO,2138,2495,1914,2,467,,Active,,,http://www.redfin.com/CA/San-Francisco/1526-Palou-Ave-94124/home/2022169,MLSListings,ML81840679,N,Y,37.7334249,-122.389405
MLS Listing,,Condo/Co-op,472 Noe St,San Francisco,CA,94114,1050000,2,1.0,San Francisco,1145,3252,1901,2,917,395,Active,,,http://www.redfin.com/CA/San-Francisco/472-Noe-St-94114/home/1828131,San Francisco MLS,421540680,N,Y,37.761464,-122.433193
MLS Listing,,Condo/Co-op,725 Florida St #17,San Francisco,CA,94110,995000,1,1.5,San Francisco,927,9498,2000,2,1073,645,Active,,,http://www.redfin.com/CA/San-Francisco/725-Florida-St-94110/unit-17/home/175005376,San Francisco MLS,421541195,N,Y,37.7599462,-122.4105766
MLS Listing,,Single Family Residential,207 Ripley St,San Francisco,CA,94110,2200000,3,2.0,San Francisco,2010,2495,,2,1095,,Active,,,http://www.redfin.com/CA/San-Francisco/207-Ripley-St-94110/home/1862537,San Francisco MLS,421538601,N,Y,37.7445294,-122.409849
MLS Listing,,Multi-Family (2-4 Unit),431 - 433 Broderick St,San Francisco,CA,94117,1650000,4,3.0,San Francisco,3050,2417,1900,3,541,,Active,,,http://www.redfin.com/CA/San-Francisco/431-Broderick-St-94117/home/1051061,San Francisco MLS,421541980,N,Y,37.7742759,-122.4396542
MLS Listing,,Single Family Residential,341 San Fernando Way,San Francisco,CA,94127,1890000,5,4.0,San Francisco,2738,4029,1927,3,690,25,Active,,,http://www.redfin.com/CA/San-Francisco/341-San-Fernando-Way-94127/home/1884638,San Francisco MLS,421541991,N,Y,37.731151,-122.4694351
MLS Listing,,Single Family Residential,1742 28th Ave,SAN FRANCISCO,CA,94122,1895000,4,3.0,SAN FRANCISCO,1969,2962,1939,3,962,,Active,,,http://www.redfin.com/CA/San-Francisco/1742-28th-Ave-94122/home/2004172,MLSListings,ML81840658,N,Y,37.754868,-122.4859734
MLS Listing,,Condo/Co-op,888 7th St #137,San Francisco,CA,94107,588000,1,1.0,San Francisco,496,95280,2007,3,1185,376,Active,,,http://www.redfin.com/CA/San-Francisco/888-7th-St-94107/unit-137/home/17306215,San Francisco MLS,421542043,N,Y,37.7705534,-122.4004057
MLS Listing,,Single Family Residential,1563 38th Ave,San Francisco,CA,94122,1250000,2,1.0,San Francisco,1150,2996,1939,3,1087,,Active,,,http://www.redfin.com/CA/San-Francisco/1563-38th-Ave-94122/home/639347,San Francisco MLS,421542012,N,Y,37.757752,-122.4973806
MLS Listing,,Condo/Co-op,485 Potrero Ave Unit C,San Francisco,CA,94110,1100000,3,1.0,San Francisco,,,,3,,300,Active,,,http://www.redfin.com/CA/San-Francisco/485-Potrero-Ave-94110/unit-C/home/110052583,San Francisco MLS,421532062,N,Y,37.7634973,-122.407017
MLS Listing,,Single Family Residential,3095 23rd Ave,San Francisco,CA,94132,2495000,6,3.0,San Francisco,3365,3876,1936,3,741,,Active,,,http://www.redfin.com/CA/San-Francisco/3095-23rd-Ave-94132/home/1372670,San Francisco MLS,421540410,N,Y,37.7312745,-122.4794291
MLS Listing,,Single Family Residential,544 Clipper St,San Francisco,CA,94114,1795000,3,2.0,San Francisco,1731,2850,1953,3,1037,,Active,,,http://www.redfin.com/CA/San-Francisco/544-Clipper-St-94114/home/1249014,San Francisco MLS,421533139,N,Y,37.7488616,-122.4371195
MLS Listing,,Condo/Co-op,338 18th Ave,San Francisco,CA,94121,995000,2,1.0,San Francisco,1161,2975,1916,3,857,415,Active,,,http://www.redfin.com/CA/San-Francisco/338-18th-Ave-94121/home/1350211,San Francisco MLS,421538418,N,Y,37.7816132,-122.4770137
MLS Listing,,Single Family Residential,529 Wildwood Way,San Francisco,CA,94112,1495000,3,3.0,San Francisco,1642,3036,1955,3,910,,Active,,,http://www.redfin.com/CA/San-Francisco/529-Wildwood-Way-94112/home/698005,San Francisco MLS,421540358,N,Y,37.7274328,-122.46059
MLS Listing,,Condo/Co-op,1750 Taylor #1903,San Francisco,CA,94133,4995000,3,2.5,San Francisco,1920,,,3,2602,2816,Active,,,http://www.redfin.com/CA/San-Francisco/1750-Taylor-St-94133/unit-1903/home/12400393,San Francisco MLS,421540054,N,Y,37.7986997,-122.4137602
MLS Listing,,Condo/Co-op,1817 California St #105,San Francisco,CA,94109,599000,1,1.0,San Francisco,542,27277,1960,3,1105,470,Active,,,http://www.redfin.com/CA/San-Francisco/1817-California-St-94109/unit-105/home/1804193,San Francisco MLS,421541682,N,Y,37.7899847,-122.4244868
MLS Listing,,Condo/Co-op,370 De Haro St Unit B5,San Francisco,CA,94103,1088000,1,2.0,San Francisco,,23254,1999,3,,785,Active,,,http://www.redfin.com/CA/San-Francisco/370-De-Haro-St-94103/unit-B5/home/12396781,San Francisco MLS,421541512,N,Y,37.7652855,-122.4020113
MLS Listing,,Multi-Family (2-4 Unit),208 - 210 Dorland St,San Francisco,CA,94114,4500000,7,4.0,San Francisco,2800,6333,1910,3,1607,,Active,,,http://www.redfin.com/CA/San-Francisco/208-Dorland-St-94114/home/1702876,San Francisco MLS,421530928,N,Y,37.762349,-122.4290638
MLS Listing,,Condo/Co-op,72 Townsend St #504,San Francisco,CA,94107,1495000,2,2.0,San Francisco,1260,29305,,3,1187,927,Active,,,http://www.redfin.com/CA/San-Francisco/72-Townsend-St-94107/unit-504/home/109278666,San Francisco MLS,421541800,N,Y,37.7812595,-122.3902125
MLS Listing,,Condo/Co-op,1 Hawthorne St Unit 24D,San Francisco,CA,94105,3300000,3,2.5,San Francisco,1956,12409,2010,3,1687,1837,Active,,,http://www.redfin.com/CA/San-Francisco/1-Hawthorne-St-94105/unit-24D/home/69371179,San Francisco MLS,421537673,N,Y,37.7857425,-122.3988969
MLS Listing,,Single Family Residential,420 Buchanan St,San Francisco,CA,94102,1995000,2,1.0,San Francisco,,1575,1895,3,,,Active,,,http://www.redfin.com/CA/San-Francisco/420-Buchanan-St-94102/home/1643135,San Francisco MLS,421541920,N,Y,37.7740565,-122.4272819
MLS Listing,,Single Family Residential,148 Huntington Dr,SAN FRANCISCO,CA,94132,1195000,3,1.0,SAN FRANCISCO,1215,3545,1953,3,984,,Active,,,http://www.redfin.com/CA/San-Francisco/148-Huntington-Dr-94132/home/1966969,MLSListings,ML81840590,N,Y,37.7322454,-122.495999
MLS Listing,,Vacant Land,611 Jones St,San Francisco,CA,94102,2199000,0,,San Francisco,,2186,,3,,,Active,,,http://www.redfin.com/CA/San-Francisco/611-Jones-St-94102/home/1852125,San Francisco MLS,421540975,N,Y,37.787086,-122.4134773
MLS Listing,,Single Family Residential,65 Meda Ave,San Francisco,CA,94112,1499000,4,3.0,San Francisco,1987,1663,1923,3,754,,Active,,,http://www.redfin.com/CA/San-Francisco/65-Meda-Ave-94112/home/1549493,San Francisco MLS,421541795,N,Y,37.723785,-122.4421898
MLS Listing,,Condo/Co-op,2115 - A Larkin St,San Francisco,CA,94109,995000,2,2.0,San Francisco,920,2400,1908,3,1082,237,Active,,,http://www.redfin.com/CA/San-Francisco/2115A-Larkin-St-94109/home/110051911,San Francisco MLS,421540376,N,Y,37.7973279,-122.4206565
MLS Listing,,Condo/Co-op,69 Clementina St #801,San Francisco,CA,94105,1049000,2,2.5,San Francisco,1192,3594,2006,3,880,600,Active,,,http://www.redfin.com/CA/San-Francisco/69-Clementina-St-94105/unit-801/home/11743618,San Francisco MLS,421540878,N,Y,37.7864296,-122.3964186
MLS Listing,,Condo/Co-op,69 Clementina St #602,San Francisco,CA,94105,899000,2,2.0,San Francisco,1185,3594,2006,3,759,498,Active,,,http://www.redfin.com/CA/San-Francisco/69-Clementina-St-94105/unit-602/home/11743617,San Francisco MLS,421540772,N,Y,37.7864296,-122.3964186
MLS Listing,,Condo/Co-op,69 Clementina St #803,San Francisco,CA,94105,849000,1,1.5,San Francisco,886,3594,2006,3,958,438,Active,,,http://www.redfin.com/CA/San-Francisco/69-Clementina-St-94105/unit-803/home/11743620,San Francisco MLS,421540794,N,Y,37.7864296,-122.3964186
MLS Listing,,Condo/Co-op,338 Main St Unit 12A,San Francisco,CA,94105,1899000,2,2.0,San Francisco,1379,75406,2016,3,1377,1248,Active,,,http://www.redfin.com/CA/San-Francisco/338-Main-St-94105/unit-12A/home/109464627,San Francisco MLS,421539779,N,Y,37.7886733,-122.3914178
MLS Listing,,Condo/Co-op,77 Beaver St,San Francisco,CA,94114,1495000,3,1.0,San Francisco,1255,2875,1890,3,1191,,Active,,,http://www.redfin.com/CA/San-Francisco/77-Beaver-St-94114/home/960300,San Francisco MLS,421538860,N,Y,37.764719,-122.434843
MLS Listing,,Multi-Family (5+ Unit),994 Guerrero St,San Francisco,CA,94110,7750000,2,,San Francisco,10515,3633,1912,3,737,,Active,,,http://www.redfin.com/CA/San-Francisco/994-Guerrero-St-94110/home/1751134,San Francisco MLS,421541799,N,Y,37.7552792,-122.4235391
MLS Listing,,Condo/Co-op,420 Mission Bay Blvd #104,San Francisco,CA,94158,1838000,2,2.5,San Francisco,1635,122891,2012,3,1124,,Active,,,http://www.redfin.com/CA/San-Francisco/420-Mission-Bay-Blvd-N-94158/unit-104/home/40477476,San Francisco MLS,421541836,N,Y,37.7715936,-122.3885893
MLS Listing,,Condo/Co-op,1218 Leavenworth St #1,San Francisco,CA,94109,865000,2,1.0,San Francisco,950,3667,1908,3,911,560,Active,,,http://www.redfin.com/CA/San-Francisco/1218-Leavenworth-St-94109/unit-1/home/11892960,San Francisco MLS,421541681,N,Y,37.7924823,-122.4157781
MLS Listing,,Condo/Co-op,200 Brannan St #405,San Francisco,CA,94107,1495000,2,2.0,San Francisco,1500,,2004,3,997,880,Active,,,http://www.redfin.com/CA/San-Francisco/200-Brannan-St-94107/unit-405/home/1664749,San Francisco MLS,421531801,N,Y,37.7837501,-122.3908424
MLS Listing,,Condo/Co-op,1177 California #224,San Francisco,CA,94109,1895000,2,2.0,San Francisco,1653,,1978,3,1146,1802,Active,,,http://www.redfin.com/CA/San-Francisco/1177-California-St-94108/unit-224/home/2006975,San Francisco MLS,421540369,N,Y,37.7913209,-122.4137552
MLS Listing,,Condo/Co-op,650 Cole St,San Francisco,CA,94117,1388000,2,1.0,San Francisco,1361,2402,1900,3,1020,350,Active,,,http://www.redfin.com/CA/San-Francisco/650-Cole-St-94117/unit-650/home/1892011,San Francisco MLS,421540500,N,Y,37.768891,-122.450293
MLS Listing,,Multi-Family (2-4 Unit),1014 Diamond St,San Francisco,CA,94114,1899000,0,,San Francisco,2800,2238,1906,3,678,,Active,,,http://www.redfin.com/CA/San-Francisco/1014-Diamond-St-94114/home/49783529,San Francisco MLS,421541739,N,Y,37.7492788,-122.4363064
MLS Listing,,Condo/Co-op,1788 Clay St #208,San Francisco,CA,94109,999000,2,2.0,San Francisco,,25662,2014,3,,752,Active,,,http://www.redfin.com/CA/San-Francisco/1788-Clay-St-94109/unit-208/home/110051627,San Francisco MLS,421541740,N,Y,37.7924998,-122.4222297
MLS Listing,,Condo/Co-op,1944 Bush St,San Francisco,CA,94115,2299000,4,2.0,San Francisco,2130,,1900,3,1079,266,Active,,,http://www.redfin.com/CA/San-Francisco/1944-Bush-St-94115/home/569881,San Francisco MLS,421541386,N,Y,37.787837,-122.42931
MLS Listing,,Condo/Co-op,1070 Green St #801,San Francisco,CA,94133,2450000,2,2.0,San Francisco,1616,,1961,3,1516,2146,Active,,,http://www.redfin.com/CA/San-Francisco/1070-Green-St-94133/unit-801/home/1892827,San Francisco MLS,421541656,N,Y,37.7987899,-122.416799
MLS Listing,,Condo/Co-op,2177 3rd St #406,San Francisco,CA,94107,1360000,2,2.0,San Francisco,958,,2020,3,1420,918,Active,,,http://www.redfin.com/CA/San-Francisco/2177-3rd-St-94107/unit-406/home/175002376,San Francisco MLS,421540705,N,Y,37.7622702,-122.3882952
MLS Listing,,Condo/Co-op,2546 Folsom St,San Francisco,CA,94110,1495000,3,2.5,San Francisco,1980,3062,1900,3,755,,Active,,,http://www.redfin.com/CA/San-Francisco/2546-Folsom-St-94110/home/1255140,San Francisco MLS,421541670,N,Y,37.756507,-122.4148121
MLS Listing,,Single Family Residential,331 Joost Ave,San Francisco,CA,94131,1695000,3,2.5,San Francisco,2052,2495,1947,3,826,,Active,,,http://www.redfin.com/CA/San-Francisco/331-Joost-Ave-94131/home/1280932,San Francisco MLS,421540663,N,Y,37.7322148,-122.4427942
MLS Listing,,Condo/Co-op,3126 Scott St #1,San Francisco,CA,94123,1695000,2,2.0,San Francisco,1367,4092,1970,3,1240,818,Active,,,http://www.redfin.com/CA/San-Francisco/3126-Scott-St-94123/unit-1/home/2003101,San Francisco MLS,421537124,N,Y,37.798787,-122.4406416
MLS Listing,,Condo/Co-op,2177 3rd St #505,San Francisco,CA,94107,985000,1,1.0,San Francisco,719,,2020,3,1370,825,Active,,,http://www.redfin.com/CA/San-Francisco/2177-3rd-St-94107/unit-505/home/175002258,San Francisco MLS,421540711,N,Y,37.7622702,-122.3882952
MLS Listing,,Multi-Family (2-4 Unit),1114 - 1118 Valencia St,San Francisco,CA,94110,2500000,9,,San Francisco,5096,1854,1907,3,491,,Active,,,http://www.redfin.com/CA/San-Francisco/1114-Valencia-St-94110/home/160349084,San Francisco MLS,421541674,N,Y,37.75497,-122.4212058
MLS Listing,,Condo/Co-op,2250 24th St #329,San Francisco,CA,94107,898000,2,2.0,San Francisco,1030,80224,1989,3,872,628,Active,,,http://www.redfin.com/CA/San-Francisco/2250-24th-St-94107/unit-329/home/1388185,San Francisco MLS,421540567,N,Y,37.7533831,-122.4021236
MLS Listing,,Single Family Residential,243 Hearst Ave,San Francisco,CA,94131,1259000,3,2.0,San Francisco,1415,2813,1925,3,890,,Active,,,http://www.redfin.com/CA/San-Francisco/243-Hearst-Ave-94131/home/1034714,San Francisco MLS,421541655,N,Y,37.7305644,-122.4430635
MLS Listing,,Multi-Family (2-4 Unit),114 - 116 College Ave,San Francisco,CA,94112,1475000,3,2.0,San Francisco,1950,1950,1916,3,756,,Active,,,http://www.redfin.com/CA/San-Francisco/114-College-Ave-94112/unit-116/home/809363,BAREIS,421539965,N,Y,37.7351882,-122.4267428
MLS Listing,,Single Family Residential,1400 - 1404 Montgomery St,San Francisco,CA,94133,6995000,6,7.5,San Francisco,5465,1406,1984,3,1280,,Active,,,http://www.redfin.com/CA/San-Francisco/1400-Montgomery-St-94133/home/539003,San Francisco MLS,421540649,N,Y,37.8021047,-122.4044356
MLS Listing,,Single Family Residential,364 17th Ave,San Francisco,CA,94121,2995000,4,2.5,San Francisco,2405,3000,1913,3,1245,,Active,,,http://www.redfin.com/CA/San-Francisco/364-17th-Ave-94121/home/1468285,San Francisco MLS,421541454,N,Y,37.781252,-122.475894
MLS Listing,,Multi-Family (2-4 Unit),3965 - 67 24th St,San Francisco,CA,94114,1098000,2,2.0,San Francisco,2700,2848,1900,3,407,,Active,,,http://www.redfin.com/CA/San-Francisco/3965-24th-St-94114/home/1448743,San Francisco MLS,421540108,N,Y,37.7512319,-122.431046
MLS Listing,,Multi-Family (2-4 Unit),,San Francisco,CA,94124,1459000,5,3.0,San Francisco,2763,5000,1923,3,528,,Active,,,http://www.redfin.com/CA/San-Francisco/Undisclosed-address-94124/home/1971427,San Francisco MLS,421541651,N,Y,37.7316262,-122.3931877
MLS Listing,,Condo/Co-op,280 Spear St Unit 6B,San Francisco,CA,94105,1595000,2,2.0,San Francisco,1260,47916,,3,1266,1229,Active,,,http://www.redfin.com/CA/San-Francisco/280-Spear-St-94105/unit-6B/home/175001616,San Francisco MLS,421541654,N,Y,37.790125,-122.3913867
MLS Listing,,Condo/Co-op,1021 Shotwell St,San Francisco,CA,94110,1295000,3,1.5,San Francisco,1484,3062,1908,3,873,338,Active,,,http://www.redfin.com/CA/San-Francisco/1021-Shotwell-St-94110/home/110051764,San Francisco MLS,421540241,N,Y,37.7517984,-122.4147858
MLS Listing,,Condo/Co-op,3915 20th St,San Francisco,CA,94114,1350000,2,2.0,San Francisco,1301,1875,1885,3,1038,280,Active,,,http://www.redfin.com/CA/San-Francisco/3915-20th-St-94114/home/17304471,San Francisco MLS,421537707,N,Y,37.7578726,-122.4284535
MLS Listing,,Condo/Co-op,20 Norfolk St,San Francisco,CA,94103,949000,2,2.0,San Francisco,836,1773,2003,3,1135,350,Active,,,http://www.redfin.com/CA/San-Francisco/20-Norfolk-St-94103/home/867329,San Francisco MLS,421541586,N,Y,37.7710922,-122.4142005
MLS Listing,,Multi-Family (5+ Unit),3984 - 3988 Cesar Chavez St,San Francisco,CA,94131,1750000,4,4.0,San Francisco,2820,3420,1900,3,621,,Active,,,http://www.redfin.com/CA/San-Francisco/3984-Cesar-Chavez-94131/home/1614918,San Francisco MLS,421540637,N,Y,37.7478299,-122.4289228
MLS Listing,,Multi-Family (2-4 Unit),1332 - 1334 South South Van Ness Ave,San Francisco,CA,94110,2190000,6,2.0,San Francisco,2599,2875,1895,3,843,,Active,,,http://www.redfin.com/CA/San-Francisco/1332-S-Van-Ness-Ave-94110/home/1760414,San Francisco MLS,421539499,N,Y,37.7517821,-122.4165464
MLS Listing,,Multi-Family (2-4 Unit),528 - 530 Noe St,San Francisco,CA,94114,3600000,2,,San Francisco,2500,3171,1900,3,1440,,Active,,,http://www.redfin.com/CA/San-Francisco/528-Noe-St-94114/home/1352258,San Francisco MLS,421528518,N,Y,37.7603997,-122.4330914
MLS Listing,,Multi-Family (2-4 Unit),17 - 19A Card Aly,San Francisco,CA,94133,1175000,6,3.0,San Francisco,3036,1113,1912,3,387,,Active,,,http://www.redfin.com/CA/San-Francisco/17-Card-Aly-94133/home/542672,San Francisco MLS,421525403,N,Y,37.7988867,-122.4093167
MLS Listing,,Condo/Co-op,425 14th St #2,San Francisco,CA,94103,1098000,2,2.0,San Francisco,1099,3250,2001,3,999,598,Active,,,http://www.redfin.com/CA/San-Francisco/425-14th-St-94103/unit-2/home/1373236,San Francisco MLS,421541579,N,Y,37.768023,-122.4228199
MLS Listing,,Condo/Co-op,666 Post St #902,San Francisco,CA,94109,659000,1,1.0,San Francisco,775,,,3,850,785,Active,,,http://www.redfin.com/CA/San-Francisco/666-Post-St-94109/unit-902/home/12400763,San Francisco MLS,421540688,N,Y,37.7879107,-122.4129132
MLS Listing,,Condo/Co-op,881 Corbett Ave #1,San Francisco,CA,94131,1395000,2,2.5,San Francisco,1597,2378,2006,3,874,220,Active,,,http://www.redfin.com/CA/San-Francisco/881-Corbett-Ave-94131/unit-1/home/12277549,San Francisco MLS,421540224,N,Y,37.7527567,-122.4435169
MLS Listing,,Condo/Co-op,250 King St #852,San Francisco,CA,94107,1929000,3,2.0,San Francisco,1653,213232,2004,3,1167,1027,Active,,,http://www.redfin.com/CA/San-Francisco/250-King-St-94107/unit-852/home/12402044,San Francisco MLS,421538426,N,Y,37.7781222,-122.3932903
MLS Listing,,Condo/Co-op,2448 Lombard St Ph 3,San Francisco,CA,94123,3295000,3,2.5,San Francisco,,,2020,4,,896,Active,,,http://www.redfin.com/CA/San-Francisco/2448-Lombard-St-94123/unit-3/home/175000544,San Francisco MLS,421541340,N,Y,37.7993413,-122.441967
MLS Listing,,Condo/Co-op,2448 Lombard St Ph 4,San Francisco,CA,94123,2698000,3,3.0,San Francisco,,,2020,4,,793,Active,,,http://www.redfin.com/CA/San-Francisco/2448-Lombard-St-94123/unit-4/home/175000560,San Francisco MLS,421541549,N,Y,37.7993413,-122.441967
MLS Listing,,Condo/Co-op,555 Golden Gate Ave Unit 3F,San Francisco,CA,94102,998000,2,2.0,San Francisco,977,,2020,4,1021,645,Active,,,http://www.redfin.com/CA/San-Francisco/555-Golden-Gate-Ave-94102/unit-3F/home/175000399,San Francisco MLS,421541308,N,Y,37.7808655,-122.4196054
MLS Listing,,Condo/Co-op,555 Golden Gate Ave Unit 3A,San Francisco,CA,94102,668000,1,1.0,San Francisco,568,,2021,4,1176,553,Active,,,http://www.redfin.com/CA/San-Francisco/555-Golden-Gate-Ave-94102/unit-3A/home/175000394,San Francisco MLS,421541301,N,Y,37.7808655,-122.4196054
MLS Listing,,Condo/Co-op,555 Golden Gate Ave Unit 1B,San Francisco,CA,94102,649000,1,1.0,San Francisco,573,,2021,4,1133,553,Active,,,http://www.redfin.com/CA/San-Francisco/555-Golden-Gate-Ave-94102/unit-1B/home/175000393,San Francisco MLS,421541295,N,Y,37.7808655,-122.4196054
MLS Listing,,Single Family Residential,177 Baltimore Way,SAN FRANCISCO,CA,94112,898000,3,1.5,SAN FRANCISCO,1225,3650,1929,4,733,,Active,,,http://www.redfin.com/CA/San-Francisco/177-Baltimore-Way-94112/home/1389442,MLSListings,ML81840405,N,Y,37.7084542,-122.4328116
MLS Listing,,Condo/Co-op,35 Dolores St #310,San Francisco,CA,94103,1449000,2,2.0,San Francisco,974,19819,2015,4,1488,602,Active,,,http://www.redfin.com/CA/San-Francisco/35-Dolores-St-94103/unit-310/home/175000356,San Francisco MLS,421538423,N,Y,37.7686054,-122.4265343
MLS Listing,,Condo/Co-op,2135 California St #3,San Francisco,CA,94115,1425000,3,2.0,San Francisco,1177,7563,1922,4,1211,509,Active,,,http://www.redfin.com/CA/San-Francisco/2135-California-St-94115/unit-3/home/175000355,San Francisco MLS,421541442,N,Y,37.7892176,-122.4295378
MLS Listing,,Condo/Co-op,3535 Wawona St #422,SAN FRANCISCO,CA,94116,1100000,1,1.0,SAN FRANCISCO,803,,2020,4,1370,533,Active,,,http://www.redfin.com/CA/San-Francisco/3535-Wawona-St-94116/unit-422/home/173690082,MLSListings,ML81840399,N,Y,37.7360911,-122.5046285
MLS Listing,,Condo/Co-op,4763 18th St,San Francisco,CA,94114,1295000,3,2.0,San Francisco,1679,2737,1912,4,771,220,Active,,,http://www.redfin.com/CA/San-Francisco/4763-18th-St-94114/home/40629024,San Francisco MLS,421540704,N,Y,37.7596893,-122.4441251
MLS Listing,,Single Family Residential,875 Francisco St,San Francisco,CA,94109,13500000,4,4.5,San Francisco,6330,3576,1915,4,2133,,Active,,,http://www.redfin.com/CA/San-Francisco/875-Francisco-St-94109/home/949892,San Francisco MLS,421541328,N,Y,37.8036803,-122.419539
MLS Listing,,Condo/Co-op,1365 Scott St #4,San Francisco,CA,94115,949000,2,1.5,San Francisco,938,8432,1987,4,1012,623,Active,,,http://www.redfin.com/CA/San-Francisco/1365-Scott-St-94115/unit-4/home/594046,San Francisco MLS,421541407,N,Y,37.782414,-122.437861
MLS Listing,,Single Family Residential,2674 San Jose Ave,San Francisco,CA,94112,998000,3,2.0,San Francisco,1624,2504,1949,4,615,,Active,,,http://www.redfin.com/CA/San-Francisco/2674-San-Jose-Ave-94112/home/938617,San Francisco MLS,421541349,N,Y,37.7147276,-122.4518658
MLS Listing,,Multi-Family (2-4 Unit),156 - 158 Beaver St,San Francisco,CA,94114,1999000,5,4.0,San Francisco,3035,1195,1929,4,659,63,Active,,,http://www.redfin.com/CA/San-Francisco/156-Beaver-St-94114/home/2036724,San Francisco MLS,421540898,N,Y,37.7651301,-122.4365001
MLS Listing,,Condo/Co-op,250 King St #730,San Francisco,CA,94107,1369000,2,2.0,San Francisco,1415,,2004,4,967,992,Active,,,http://www.redfin.com/CA/San-Francisco/250-King-St-94107/unit-730/home/22886066,San Francisco MLS,421536578,N,Y,37.7781222,-122.3932903
MLS Listing,,Condo/Co-op,35 Lucerne St Unit C,San Francisco,CA,94103,985000,1,1.5,San Francisco,1446,1250,1997,4,681,689,Active,,,http://www.redfin.com/CA/San-Francisco/35-Lucerne-St-94103/unit-C/home/12396242,San Francisco MLS,421541421,N,Y,37.7736006,-122.4014841
MLS Listing,,Condo/Co-op,4761 18th St,San Francisco,CA,94114,1195000,2,1.0,San Francisco,1245,2737,1912,4,960,233,Active,,,http://www.redfin.com/CA/San-Francisco/4761-18th-St-94114/home/40628896,San Francisco MLS,421540173,N,Y,37.7596335,-122.4440987
MLS Listing,,Single Family Residential,80 San Andreas Way,San Francisco,CA,94127,2695000,3,3.5,San Francisco,2435,5174,1925,4,1107,201,Active,,,http://www.redfin.com/CA/San-Francisco/80-San-Andreas-Way-94127/home/692988,San Francisco MLS,421540424,N,Y,37.7331231,-122.4644819
MLS Listing,,Condo/Co-op,72 Cook St,San Francisco,CA,94118,1148000,2,1.0,San Francisco,1274,3050,1924,4,901,,Active,,,http://www.redfin.com/CA/San-Francisco/72-Cook-St-94118/home/591658,San Francisco MLS,421541360,N,Y,37.78254,-122.451966
MLS Listing,,Single Family Residential,31 Miramar Ave,San Francisco,CA,94112,1495000,3,2.0,San Francisco,2064,2809,1929,4,724,,Active,,,http://www.redfin.com/CA/San-Francisco/31-Miramar-Ave-94112/home/1037539,San Francisco MLS,421539764,N,Y,37.718827,-122.4584228
MLS Listing,,Condo/Co-op,3884 23rd St,San Francisco,CA,94114,1150000,2,1.0,San Francisco,1057,2250,1900,4,1088,405,Active,,,http://www.redfin.com/CA/San-Francisco/3884-23rd-St-94114/home/2006496,San Francisco MLS,421541329,N,Y,37.7533841,-122.4295268
MLS Listing,,Condo/Co-op,2299 Market St #201,San Francisco,CA,94114,899000,1,1.0,San Francisco,688,,2013,4,1307,502,Active,,,http://www.redfin.com/CA/San-Francisco/2299-Market-St-94114/unit-201/home/110051884,San Francisco MLS,421541309,N,Y,37.76408,-122.4328702
MLS Listing,,Single Family Residential,3755 20th St,San Francisco,CA,94110,4195000,4,2.5,San Francisco,3900,,1889,4,1076,,Active,,,http://www.redfin.com/CA/San-Francisco/3755-20th-St-94110/home/713440,San Francisco MLS,421539740,N,Y,37.7581055,-122.4247308
MLS Listing,,Single Family Residential,928 Castro St,San Francisco,CA,94114,2500000,3,2.5,San Francisco,1850,2622,1908,4,1351,,Active,,,http://www.redfin.com/CA/San-Francisco/928-Castro-St-94114/home/2016558,San Francisco MLS,421531504,N,Y,37.7540032,-122.4346253
MLS Listing,,Single Family Residential,745 39th Ave,San Francisco,CA,94121,2395000,4,1.5,San Francisco,2990,3598,1927,4,801,,Active,,,http://www.redfin.com/CA/San-Francisco/745-39th-Ave-94121/home/1839528,San Francisco MLS,421540750,N,Y,37.7746932,-122.4996354
MLS Listing,,Condo/Co-op,2401 45th Ave #3,San Francisco,CA,94116,775000,2,1.0,San Francisco,900,2178,1961,4,861,100,Active,,,http://www.redfin.com/CA/San-Francisco/2401-45th-Ave-94116/unit-3/home/982441,San Francisco MLS,421540879,N,Y,37.7416604,-122.5037261
MLS Listing,,Condo/Co-op,4351 17th St,San Francisco,CA,94114,945000,2,,San Francisco,1230,2705,1994,4,768,275,Active,,,http://www.redfin.com/CA/San-Francisco/4351-17th-St-94114/home/1854637,San Francisco MLS,421540271,N,Y,37.7619697,-122.4416513
MLS Listing,,Single Family Residential,1778 48th Ave,San Francisco,CA,94122,1295000,3,2.0,San Francisco,1546,2996,1945,4,838,,Active,,,http://www.redfin.com/CA/San-Francisco/1778-48th-Ave-94122/home/963562,San Francisco MLS,421529863,N,Y,37.7533065,-122.5073915
MLS Listing,,Multi-Family (2-4 Unit),1742 - 1746 Filbert St,San Francisco,CA,94123,3688000,9,1.0,San Francisco,4644,4133,1911,4,794,,Active,,,http://www.redfin.com/CA/San-Francisco/1742-Filbert-St-94123/home/563026,San Francisco MLS,421540322,N,Y,37.799292,-122.4282454
MLS Listing,,Condo/Co-op,870 Harrison St #602,San Francisco,CA,94107,819000,1,1.0,San Francisco,583,5843,,4,1405,670,Active,,,http://www.redfin.com/CA/San-Francisco/870-Harrison-St-94107/unit-602/home/109315282,San Francisco MLS,421539483,N,Y,37.7797695,-122.401375
MLS Listing,,Condo/Co-op,630 Leavenworth St #5,San Francisco,CA,94109,929000,2,2.0,San Francisco,966,,1918,4,962,605,Active,,,http://www.redfin.com/CA/San-Francisco/630-Leavenworth-St-94109/unit-5/home/35636082,San Francisco MLS,421540961,N,Y,37.7869986,-122.4146335
MLS Listing,,Condo/Co-op,1160 Mission St #1106,San Francisco,CA,94103,1350000,2,2.0,San Francisco,1146,,2008,4,1178,961,Active,,,http://www.redfin.com/CA/San-Francisco/1160-Mission-St-94103/unit-1106/home/17305366,San Francisco MLS,421541246,N,Y,37.7786972,-122.4126145
MLS Listing,,Condo/Co-op,388 Fulton St #212,San Francisco,CA,94102,382532,1,1.0,San Francisco,404,12509,2016,4,947,491,Active,,,http://www.redfin.com/CA/San-Francisco/388-Fulton-St-94102/unit-212/home/113206651,San Francisco MLS,421541227,N,Y,37.7790326,-122.4231449
MLS Listing,,Condo/Co-op,1905 Laguna St #104,San Francisco,CA,94115,749000,0,1.0,San Francisco,,6250,1924,4,,538,Active,,,http://www.redfin.com/CA/San-Francisco/1905-Laguna-St-94115/unit-104/home/999393,San Francisco MLS,421538519,N,Y,37.788734,-122.4289813
MLS Listing,,Condo/Co-op,2148 Union St #2,San Francisco,CA,94123,1399000,2,2.0,San Francisco,,,2021,4,,227,Active,,,http://www.redfin.com/CA/San-Francisco/2148-Union-St-94123/unit-2/home/174998515,San Francisco MLS,421541213,N,Y,37.7973787,-122.4347049
MLS Listing,,Single Family Residential,2832 Union St,San Francisco,CA,94123,3495000,3,3.0,San Francisco,2615,3075,1914,4,1337,,Active,,,http://www.redfin.com/CA/San-Francisco/2832-Union-St-94123/home/582669,San Francisco MLS,421540732,N,Y,37.7959339,-122.446099
MLS Listing,,Condo/Co-op,2148 Union St #4,San Francisco,CA,94123,1250000,1,1.0,San Francisco,,,2021,4,,227,Active,,,http://www.redfin.com/CA/San-Francisco/2148-Union-St-94123/unit-4/home/174998285,San Francisco MLS,421540920,N,Y,37.7973787,-122.4347049
MLS Listing,,Condo/Co-op,1905 Eddy St #1,San Francisco,CA,94115,1295000,3,2.0,San Francisco,1265,30997,1983,4,1024,570,Active,,,http://www.redfin.com/CA/San-Francisco/1905-Eddy-St-94115/unit-1/home/1716825,San Francisco MLS,421534368,N,Y,37.7804383,-122.4392489
MLS Listing,,Multi-Family (2-4 Unit),1814 - 1816 Webster St,San Francisco,CA,94115,1995000,4,3.0,San Francisco,2390,1444,1900,4,835,,Active,,,http://www.redfin.com/CA/San-Francisco/1814-Webster-St-94115/home/569800,San Francisco MLS,421532606,N,Y,37.787814,-122.4313986
MLS Listing,,Single Family Residential,2652 Chestnut St,San Francisco,CA,94123,7995000,5,6.0,San Francisco,,3000,2014,4,,,Active,,,http://www.redfin.com/CA/San-Francisco/2652-Chestnut-St-94123/home/1079461,San Francisco MLS,421540655,N,Y,37.7996223,-122.4471268
MLS Listing,,Condo/Co-op,1310 California St,San Francisco,CA,94109,2150000,3,2.0,San Francisco,1690,1875,1911,4,1272,400,Active,,,http://www.redfin.com/CA/San-Francisco/1310-California-St-94109/home/549322,San Francisco MLS,421536018,N,Y,37.791374,-122.416141
MLS Listing,,Single Family Residential,653 Duncan St,San Francisco,CA,94131,3000000,3,3.5,San Francisco,2373,2850,1996,4,1264,,Active,,,http://www.redfin.com/CA/San-Francisco/653-Duncan-St-94131/home/802760,San Francisco MLS,421541018,N,Y,37.7454471,-122.4346276
MLS Listing,,Single Family Residential,4 Russian Hill Pl,San Francisco,CA,94133,5700000,3,3.0,San Francisco,,,1951,4,,,Active,,,http://www.redfin.com/CA/San-Francisco/4-Russian-Hill-Pl-94133/home/1126144,San Francisco MLS,421522919,N,Y,37.798069,-122.4149716
MLS Listing,,Condo/Co-op,123 San Jose Ave Unit C,San Francisco,CA,94110,595000,1,1.0,San Francisco,,,,4,,250,Active,,,http://www.redfin.com/CA/San-Francisco/123-San-Jose-Ave-94110/unit-C/home/174997390,San Francisco MLS,421536539,N,Y,37.7527979,-122.421353
MLS Listing,,Single Family Residential,4272 25th St,San Francisco,CA,94114,1695000,2,2.5,San Francisco,1659,2848,1893,4,1022,,Active,,,http://www.redfin.com/CA/San-Francisco/4272-25th-St-94114/home/1822042,San Francisco MLS,421539809,N,Y,37.7498217,-122.4355101
MLS Listing,,Multi-Family (2-4 Unit),312 - 312 A Lombard St,San Francisco,CA,94133,2395000,4,2.0,San Francisco,2212,1786,1926,4,1083,,Active,,,http://www.redfin.com/CA/San-Francisco/312-Lombard-St-94133/home/1935960,San Francisco MLS,421539106,N,Y,37.8037398,-122.4068964
MLS Listing,,Single Family Residential,71 Marston Ave,San Francisco,CA,94112,1788000,6,6.0,San Francisco,2520,2809,1926,4,710,,Active,,,http://www.redfin.com/CA/San-Francisco/71-Marston-Ave-94112/home/1790901,San Francisco MLS,421540641,N,Y,37.7273073,-122.445994
MLS Listing,,Single Family Residential,325 Surrey St,San Francisco,CA,94131,1695000,3,2.0,San Francisco,1514,2587,,4,1120,,Active,,,http://www.redfin.com/CA/San-Francisco/325-Surrey-St-94131/home/1363585,San Francisco MLS,421540197,N,Y,37.7357767,-122.437379
MLS Listing,,Condo/Co-op,1554 Dolores St,San Francisco,CA,94110,1495000,3,1.5,San Francisco,1832,2512,,4,816,200,Active,,,http://www.redfin.com/CA/San-Francisco/1554-Dolores-St-94110/home/12347130,San Francisco MLS,421537878,N,Y,37.7445016,-122.4247591
MLS Listing,,Single Family Residential,1250 12th Ave,San Francisco,CA,94122,1888000,4,2.0,San Francisco,1960,2996,1927,4,963,,Active,,,http://www.redfin.com/CA/San-Francisco/1250-12th-Ave-94122/home/1684767,San Francisco MLS,421538142,N,Y,37.7648161,-122.4693909
MLS Listing,,Multi-Family (2-4 Unit),459 & 461 Potrero Ave,SAN FRANCISCO,CA,94110,1850000,5,3.0,SAN FRANCISCO,2592,2500,1906,5,714,,Active,,,http://www.redfin.com/CA/San-Francisco/461-Potrero-Ave-94110/home/148059455,MLSListings,ML81840168,N,Y,37.7637035,-122.4070112
MLS Listing,,Single Family Residential,2523 Pacific Ave,San Francisco,CA,94115,14300000,5,6.0,San Francisco,8520,5114,1903,5,1678,,Active,,,http://www.redfin.com/CA/San-Francisco/2523-Pacific-Ave-94115/home/1498593,San Francisco MLS,421540634,N,Y,37.7927685,-122.4375893
MLS Listing,,Condo/Co-op,1438 Green St Unit 7C,San Francisco,CA,94109,1495000,2,2.0,San Francisco,1068,17413,1998,5,1400,1192,Active,,,http://www.redfin.com/CA/San-Francisco/1438-Green-St-94109/unit-7C/home/1999053,San Francisco MLS,421540909,N,Y,37.7980437,-122.4229237
MLS Listing,,Condo/Co-op,348 Church St #202,San Francisco,CA,94114,1295000,2,2.0,San Francisco,1211,9334,1995,5,1069,545,Active,,,http://www.redfin.com/CA/San-Francisco/348-Church-St-94114/unit-202/home/2008617,San Francisco MLS,421540893,N,Y,37.7653992,-122.4289848
MLS Listing,,Condo/Co-op,260 King St #609,San Francisco,CA,94107,799000,1,1.0,San Francisco,823,,2004,5,971,811,Active,,,http://www.redfin.com/CA/San-Francisco/260-King-St-94107/unit-609/home/12331054,San Francisco MLS,421537708,N,Y,37.7776624,-122.3938672
MLS Listing,,Single Family Residential,2178 18th Ave,San Francisco,CA,94116,2168000,5,5.0,San Francisco,2764,3606,1928,5,784,,Active,,,http://www.redfin.com/CA/San-Francisco/2178-18th-Ave-94116/home/1271060,San Francisco MLS,421531172,N,Y,37.747251,-122.4746976
MLS Listing,,Condo/Co-op,270 Valencia St #506,San Francisco,CA,94103,895000,2,1.0,San Francisco,740,9578,2005,5,1209,845,Active,,,http://www.redfin.com/CA/San-Francisco/270-Valencia-St-94103/unit-506/home/11743577,San Francisco MLS,421540721,N,Y,37.7685554,-122.4225153
MLS Listing,,Condo/Co-op,1595 Treat Ave,San Francisco,CA,94110,1495000,3,3.0,San Francisco,1760,2775,1908,5,849,350,Active,,,http://www.redfin.com/CA/San-Francisco/1595-Treat-Ave-94110/home/45441942,San Francisco MLS,421520036,N,Y,37.7451599,-122.4121355
MLS Listing,,Condo/Co-op,1593 Treat Ave,San Francisco,CA,94110,995000,2,1.0,San Francisco,1130,2775,1908,5,881,350,Active,,,http://www.redfin.com/CA/San-Francisco/1593-Treat-Ave-94110/home/45441937,San Francisco MLS,421520035,N,Y,37.745162,-122.41221
MLS Listing,,Single Family Residential,1631 47th Ave,San Francisco,CA,94122,1195000,4,3.0,San Francisco,1650,3000,1923,5,724,,Active,,,http://www.redfin.com/CA/San-Francisco/1631-47th-Ave-94122/home/636360,San Francisco MLS,421540766,N,Y,37.7560223,-122.5069002
MLS Listing,,Single Family Residential,674 29th St,San Francisco,CA,94131,1495000,2,2.5,San Francisco,,2848,1910,5,,,Active,,,http://www.redfin.com/CA/San-Francisco/674-29th-St-94131/home/844509,San Francisco MLS,421540689,N,Y,37.7433126,-122.4349369
MLS Listing,,Condo/Co-op,8 Octavia St #608,San Francisco,CA,94102,1295000,2,2.0,San Francisco,1001,12456,2014,5,1294,844,Active,,,http://www.redfin.com/CA/San-Francisco/8-Octavia-St-94102/unit-608/home/110051576,San Francisco MLS,421540185,N,Y,37.7726231,-122.4234103
MLS Listing,,Multi-Family (2-4 Unit),3268 - 3270 Market St,San Francisco,CA,94114,1099000,2,1.0,San Francisco,1000,860,1916,5,1099,,Active,,,http://www.redfin.com/CA/San-Francisco/3268-Market-St-94114/home/174978477,San Francisco MLS,421534919,N,Y,37.7585583,-122.4448599
MLS Listing,,Multi-Family (2-4 Unit),52 - 54 Valparaiso St,San Francisco,CA,94133,1788000,3,1.0,San Francisco,1622,919,1913,5,1102,,Active,,,http://www.redfin.com/CA/San-Francisco/52-Valparaiso-St-94133/home/1722253,San Francisco MLS,421526643,N,Y,37.8014242,-122.4136368
MLS Listing,,Condo/Co-op,1584 Fulton St,San Francisco,CA,94117,625000,1,1.0,San Francisco,552,,1900,5,1132,170,Active,,,http://www.redfin.com/CA/San-Francisco/1584-Fulton-St-94117/Frnt/home/148070531,San Francisco MLS,421539560,N,Y,37.7764855,-122.4428761
MLS Listing,,Condo/Co-op,1000 3rd St #412,San Francisco,CA,94158,987000,1,1.0,San Francisco,767,46014,2018,5,1287,828,Active,,,http://www.redfin.com/CA/San-Francisco/1000-3rd-St-94158/unit-412/home/112856095,San Francisco MLS,513815,N,Y,37.7752125,-122.3902276
MLS Listing,,Multi-Family (2-4 Unit),304 Holloway Ave,San Francisco,CA,94112,1150000,3,1.0,San Francisco,1968,2500,1916,6,584,,Active,,,http://www.redfin.com/CA/San-Francisco/304-Holloway-Ave-94112/home/1037444,San Francisco MLS,421540338,N,Y,37.7219958,-122.4564768
MLS Listing,,Single Family Residential,2700 Pierce St,San Francisco,CA,94123,12100000,6,6.0,San Francisco,6945,5262,1907,6,1742,,Active,,,http://www.redfin.com/CA/San-Francisco/2700-Pierce-St-94123/home/1626861,San Francisco MLS,421540321,N,Y,37.7950201,-122.4382528
MLS Listing,,Single Family Residential,534 Valley St,San Francisco,CA,94131,3995000,4,3.5,San Francisco,,2848,,6,,,Active,,,http://www.redfin.com/CA/San-Francisco/534-Valley-St-94131/home/1912621,San Francisco MLS,421540543,N,Y,37.7442269,-122.4342536
MLS Listing,,Single Family Residential,378 Collingwood St,San Francisco,CA,94114,5700000,3,3.0,San Francisco,2820,2570,1940,6,2021,,Active,,,http://www.redfin.com/CA/San-Francisco/378-Collingwood-St-94114/home/1291449,San Francisco MLS,421536620,N,Y,37.7564329,-122.4358772
MLS Listing,,Condo/Co-op,201 Folsom St Unit 2C,San Francisco,CA,94105,1548000,1,1.5,San Francisco,1354,75406,2016,6,1143,1242,Active,,,http://www.redfin.com/CA/San-Francisco/201-Folsom-St-94105/unit-2C/home/144064109,San Francisco MLS,421539858,N,Y,37.7887059,-122.3922385
MLS Listing,,Condo/Co-op,1075 Market St #307,San Francisco,CA,94103,331429,1,1.0,San Francisco,500,12286,2018,6,663,666,Active,,,http://www.redfin.com/CA/San-Francisco/1075-Market-St-94103/unit-307/home/169571393,San Francisco MLS,421540414,N,Y,37.7807996,-122.4118342
MLS Listing,,Multi-Family (2-4 Unit),1785-1787 Alabama St,SAN FRANCISCO,CA,94110,2200000,5,3.0,SAN FRANCISCO,3044,1999,1909,6,723,,Active,,,http://www.redfin.com/CA/San-Francisco/1785-Alabama-St-94110/home/2024976,MLSListings,ML81839973,N,Y,37.7444574,-122.410101
MLS Listing,,Multi-Family (2-4 Unit),3827 - 3829 20th St,San Francisco,CA,94114,3995000,6,1.0,San Francisco,4083,2848,1911,6,978,,Active,,,http://www.redfin.com/CA/San-Francisco/3827-20th-St-94114/home/1993403,San Francisco MLS,421540491,N,Y,37.7579421,-122.4264417
MLS Listing,,Multi-Family (5+ Unit),606 Broadway,SAN FRANCISCO,CA,94133,8000000,,,SAN FRANCISCO,11340,2291,1907,6,705,,Active,,,http://www.redfin.com/CA/San-Francisco/606-Broadway-94133/home/174976180,MLSListings,ML81838649,N,Y,37.798008,-122.4072142
MLS Listing,,Condo/Co-op,140 S Van Ness Ave #405,SAN FRANCISCO,CA,94103,750000,1,1.5,SAN FRANCISCO,830,,2002,6,904,560,Active,,,http://www.redfin.com/CA/San-Francisco/140-S-Van-Ness-Ave-94103/unit-405/home/22874502,MLSListings,ML81839937,N,Y,37.7716556,-122.418809
MLS Listing,,Single Family Residential,1417 15th St,San Francisco,CA,94103,5000000,0,,San Francisco,9045,5000,1906,6,553,,Active,,,http://www.redfin.com/CA/San-Francisco/1417-15th-St-94103/home/12395717,San Francisco MLS,421540425,N,Y,37.7666648,-122.4161551
MLS Listing,,Multi-Family (2-4 Unit),1708 - 1710 Lombard St,San Francisco,CA,94123,2200000,4,2.0,San Francisco,3040,2063,1924,6,724,,Active,,,http://www.redfin.com/CA/San-Francisco/1708-Lombard-St-94123/home/998859,San Francisco MLS,421539761,N,Y,37.8008921,-122.4297861
MLS Listing,,Single Family Residential,27 Wanda St,SAN FRANCISCO,CA,94112,998000,2,1.0,SAN FRANCISCO,885,2500,1915,6,1128,,Active,,,http://www.redfin.com/CA/San-Francisco/27-Wanda-St-94112/home/1551776,MLSListings,ML81839935,N,Y,37.72309,-122.4398785
MLS Listing,,Single Family Residential,307 Moultrie St,San Francisco,CA,94110,1195000,2,1.5,San Francisco,,1750,1910,6,,,Active,,,http://www.redfin.com/CA/San-Francisco/307-Moultrie-St-94110/home/761979,San Francisco MLS,421529860,N,Y,37.7402468,-122.4156343
MLS Listing,,Single Family Residential,1575 26th Ave,San Francisco,CA,94122,1795000,4,3.0,San Francisco,1462,3000,1940,6,1228,,Active,,,http://www.redfin.com/CA/San-Francisco/1575-26th-Ave-94122/home/2021441,BAREIS,421536401,N,Y,37.7581292,-122.4845729
MLS Listing,,Condo/Co-op,110 Channel St #104,San Francisco,CA,94158,1299000,2,2.0,San Francisco,,,2017,6,,872,Active,,,http://www.redfin.com/CA/San-Francisco/110-Channel-St-94158/unit-104/home/167382781,San Francisco MLS,511484,N,Y,37.7751436,-122.3906212
MLS Listing,,Single Family Residential,18 Lapidge St,San Francisco,CA,94110,1195000,2,1.0,San Francisco,1083,2000,1909,6,1103,,Active,,,http://www.redfin.com/CA/San-Francisco/18-Lapidge-St-94110/home/710524,San Francisco MLS,421539000,N,Y,37.7612657,-122.4226029
MLS Listing,,Single Family Residential,217 Chester Ave,San Francisco,CA,94132,895000,1,1.0,San Francisco,980,1890,1937,6,913,,Active,,,http://www.redfin.com/CA/San-Francisco/217-Chester-Ave-94132/home/1986716,San Francisco MLS,421533379,N,Y,37.711877,-122.4702311
MLS Listing,,Condo/Co-op,1868 Van Ness Ave #401,San Francisco,CA,94109,1225000,2,2.0,San Francisco,989,9202,2017,6,1239,769,Active,,,http://www.redfin.com/CA/San-Francisco/1868-Van-Ness-Ave-94109/unit-401/home/113439209,San Francisco MLS,421532425,N,Y,37.7929464,-122.422437
MLS Listing,,Townhouse,550 Davis #27,San Francisco,CA,94111,2998000,3,2.5,San Francisco,2020,83732,1981,6,1484,1431,Active,,,http://www.redfin.com/CA/San-Francisco/550-Davis-St-94111/unit-27/home/547533,San Francisco MLS,421538872,N,Y,37.797573,-122.3982752
MLS Listing,,Condo/Co-op,2983 21st St Unit B,San Francisco,CA,94110,429000,1,1.0,San Francisco,,1711,1900,6,,,Active,,,http://www.redfin.com/CA/San-Francisco/2983-21st-St-94110/unit-B/home/174974941,San Francisco MLS,421540056,N,Y,37.7571598,-122.4142081
MLS Listing,,Single Family Residential,581 Laidley St,SAN FRANCISCO,CA,94131,999000,1,1.0,SAN FRANCISCO,876,2495,1913,6,1140,,Active,,,http://www.redfin.com/CA/San-Francisco/581-Laidley-St-94131/home/807672,MLSListings,ML81839882,N,Y,37.7350422,-122.4320598
MLS Listing,,Condo/Co-op,2983 21st St Unit C,San Francisco,CA,94110,619000,1,1.0,San Francisco,,1711,1900,6,,,Active,,,http://www.redfin.com/CA/San-Francisco/2983-21st-St-94110/unit-C/home/174974901,San Francisco MLS,421540057,N,Y,37.7571598,-122.4142081
MLS Listing,,Condo/Co-op,2983 21st St Unit A,San Francisco,CA,94110,699000,1,1.0,San Francisco,,1711,1900,6,,,Active,,,http://www.redfin.com/CA/San-Francisco/2983-21st-St-94110/unit-A/home/174974900,San Francisco MLS,421540055,N,Y,37.7571598,-122.4142081
MLS Listing,,Condo/Co-op,2981 21st St,San Francisco,CA,94110,1299000,3,2.0,San Francisco,,1711,1900,6,,,Active,,,http://www.redfin.com/CA/San-Francisco/2981-21st-St-94110/home/714512,San Francisco MLS,421540053,N,Y,37.7571395,-122.414101
MLS Listing,,Condo/Co-op,776 Tehama St #9,San Francisco,CA,94103,375000,1,1.0,San Francisco,418,5886,2006,6,897,533,Active,,,http://www.redfin.com/CA/San-Francisco/776-Tehama-St-94103/unit-9/home/22886346,San Francisco MLS,421540153,N,Y,37.7749615,-122.4123732
MLS Listing,,Condo/Co-op,502 Roosevelt Way,San Francisco,CA,94114,1795000,3,2.0,San Francisco,1690,4713,,6,1062,350,Active,,,http://www.redfin.com/CA/San-Francisco/502-Roosevelt-Way-94114/home/671075,San Francisco MLS,421535931,N,Y,37.7634034,-122.44402
MLS Listing,,Single Family Residential,2736 Ortega St,San Francisco,CA,94122,998000,3,2.0,San Francisco,1705,1873,1941,6,585,,Active,,,http://www.redfin.com/CA/San-Francisco/2736-Ortega-St-94122/home/1540932,San Francisco MLS,421539567,N,Y,37.7518175,-122.493092
MLS Listing,,Single Family Residential,2640 Jackson St,San Francisco,CA,94115,14950000,9,7.5,San Francisco,7772,5819,1889,6,1924,,Active,,,http://www.redfin.com/CA/San-Francisco/2640-Jackson-St-94115/home/1999123,San Francisco MLS,421527637,N,Y,37.7921431,-122.4391376
MLS Listing,,Condo/Co-op,3700 Divisadero St #201,San Francisco,CA,94123,1599000,2,2.0,San Francisco,1225,4727,1993,6,1305,725,Active,,,http://www.redfin.com/CA/San-Francisco/3700-Divisadero-St-94123/unit-201/home/1832616,San Francisco MLS,421538579,N,Y,37.8039183,-122.4434356
MLS Listing,,Condo/Co-op,708 Long Bridge St #610,San Francisco,CA,94158,1599000,2,2.0,San Francisco,1309,84866,2016,6,1222,1180,Active,,,http://www.redfin.com/CA/San-Francisco/708-Long-Bridge-St-94158/unit-610/home/109464698,San Francisco MLS,421529536,N,Y,37.7720304,-122.3935768
MLS Listing,,Single Family Residential,2071 18th Ave,San Francisco,CA,94116,1690000,5,5.0,San Francisco,2143,2269,,6,789,,Active,,,http://www.redfin.com/CA/San-Francisco/2071-18th-Ave-94116/home/650855,San Francisco MLS,421540109,N,Y,37.7492623,-122.4753277
MLS Listing,,Multi-Family (2-4 Unit),85 - 87 Diamond St,San Francisco,CA,94114,3200000,4,4.0,San Francisco,3790,3123,1930,6,844,,Active,,,http://www.redfin.com/CA/San-Francisco/85-Diamond-St-94114/home/671925,San Francisco MLS,421539900,N,Y,37.7611039,-122.4368959
MLS Listing,,Multi-Family (2-4 Unit),100 - 104 College Ave,San Francisco,CA,94112,3100000,0,,San Francisco,5472,2391,1912,6,567,,Active,,,http://www.redfin.com/CA/San-Francisco/100-College-Ave-94112/home/148077435,San Francisco MLS,421539390,N,Y,37.7353705,-122.4269607
MLS Listing,,Single Family Residential,116 Bemis St,San Francisco,CA,94131,995000,2,1.0,San Francisco,,2583,1952,6,,,Active,,,http://www.redfin.com/CA/San-Francisco/116-Bemis-St-94131/home/1929887,San Francisco MLS,421539893,N,Y,37.7375923,-122.4301129
MLS Listing,,Condo/Co-op,95 Red Rock Way Unit 207M,San Francisco,CA,94131,609000,0,1.0,San Francisco,592,6833,1972,6,1029,516,Active,,,http://www.redfin.com/CA/San-Francisco/95-Red-Rock-Way-94131/unit-207M/home/1457659,San Francisco MLS,421539819,N,Y,37.7463443,-122.4415484
MLS Listing,,Single Family Residential,755 Edinburgh St,San Francisco,CA,94112,1068000,4,1.5,San Francisco,1447,2495,1926,6,738,,Active,,,http://www.redfin.com/CA/San-Francisco/755-Edinburgh-St-94112/home/1559436,San Francisco MLS,421537754,N,Y,37.7171797,-122.4348134
MLS Listing,,Condo/Co-op,655 5th St #14,San Francisco,CA,94107,799000,1,2.0,San Francisco,975,11007,1999,6,819,620,Active,,,http://www.redfin.com/CA/San-Francisco/655-5th-St-94107/unit-14/home/12396769,San Francisco MLS,421531502,N,Y,37.775928,-122.397528
MLS Listing,,Single Family Residential,2232 Bush St,San Francisco,CA,94115,6200000,4,3.5,San Francisco,6374,3188,1919,7,973,,Active,,,http://www.redfin.com/CA/San-Francisco/2232-Bush-St-94115/home/174972855,San Francisco MLS,421540183,N,Y,37.7872091,-122.4341518
MLS Listing,,Condo/Co-op,1776 Sacramento St #305,San Francisco,CA,94109,988000,2,2.0,San Francisco,1091,19662,1992,7,906,841,Active,,,http://www.redfin.com/CA/San-Francisco/1776-Sacramento-St-94109/unit-305/home/1675482,San Francisco MLS,421539972,N,Y,37.7915441,-122.4221102
MLS Listing,,Condo/Co-op,1631 Pierce St,San Francisco,CA,94115,1895000,3,2.5,San Francisco,1504,3625,1886,7,1260,739,Active,,,http://www.redfin.com/CA/San-Francisco/1631-Pierce-St-94115/home/17393416,San Francisco MLS,421540198,N,Y,37.7853135,-122.4366597
MLS Listing,,Townhouse,57 Blair Ter,San Francisco,CA,94107,1050000,3,1.0,San Francisco,1109,882,1984,7,947,270,Active,,,http://www.redfin.com/CA/San-Francisco/57-Blair-Ter-94107/home/737145,San Francisco MLS,421539919,N,Y,37.7511332,-122.3995328
MLS Listing,,Condo/Co-op,218 Corbett Ave,San Francisco,CA,94114,1595000,2,2.0,San Francisco,1675,2966,1902,7,952,366,Active,,,http://www.redfin.com/CA/San-Francisco/218-Corbett-Ave-94114/home/17306179,San Francisco MLS,421540156,N,Y,37.7616168,-122.4435169
MLS Listing,,Condo/Co-op,3620 Cesar Chavez St #301,San Francisco,CA,94110,1279000,2,2.0,San Francisco,1144,,2020,7,1118,618,Active,,,http://www.redfin.com/CA/San-Francisco/3620-Cesar-Chavez-94110/unit-301/home/171040784,San Francisco MLS,421538288,N,Y,37.7483761,-122.4219282
MLS Listing,,Condo/Co-op,214 Arguello Blvd,San Francisco,CA,94118,2099000,4,2.5,San Francisco,2042,2883,1911,7,1028,530,Active,,,http://www.redfin.com/CA/San-Francisco/214-Arguello-Blvd-94118/home/587741,San Francisco MLS,421537981,N,Y,37.786399,-122.458884
MLS Listing,,Multi-Family (2-4 Unit),1296 Dolores St,SAN FRANCISCO,CA,94110,2495000,4,2.0,SAN FRANCISCO,2920,1890,1922,7,854,,Active,,,http://www.redfin.com/CA/San-Francisco/1296-Dolores-St-94110/home/1535336,MLSListings,ML81839789,N,Y,37.7487398,-122.4251891
MLS Listing,,Single Family Residential,100 San Felipe Ave,San Francisco,CA,94127,2495000,4,3.5,Monterey,3465,8398,1928,7,720,,Active,,,http://www.redfin.com/CA/San-Francisco/100-San-Felipe-Ave-94127/home/1873598,"bridgeMLS, Bay East AOR, or Contra Costa AOR",40946193,N,Y,37.7312721,-122.4622706
MLS Listing,,Multi-Family (5+ Unit),2120 Jones St,San Francisco,CA,94133,2600000,0,,San Francisco,4731,2121,1964,7,550,,Active,,,http://www.redfin.com/CA/San-Francisco/2120-Jones-St-94133/home/1506301,San Francisco MLS,421540081,N,Y,37.8009399,-122.4158666
MLS Listing,,Multi-Family (5+ Unit),2100 Jones St,San Francisco,CA,94133,4250000,6,,San Francisco,8193,2896,1912,7,519,,Active,,,http://www.redfin.com/CA/San-Francisco/2100-Jones-St-94133/unit-2102/home/1978470,San Francisco MLS,421540075,N,Y,37.8007593,-122.4157933
MLS Listing,,Condo/Co-op,1521 Sutter St #304,San Francisco,CA,94109,1295000,2,2.0,San Francisco,1075,10328,2008,7,1205,537,Active,,,http://www.redfin.com/CA/San-Francisco/1521-Sutter-St-94109/unit-304/home/21965882,San Francisco MLS,421535481,N,Y,37.786732,-122.4259523
MLS Listing,,Multi-Family (2-4 Unit),427 8th Ave,San Francisco,CA,94118,2399000,4,2.0,San Francisco,3850,2996,1923,7,623,,Active,,,http://www.redfin.com/CA/San-Francisco/427-8th-Ave-94118/home/1245126,San Francisco MLS,421539986,N,Y,37.7802953,-122.4667374
MLS Listing,,Single Family Residential,3132 Laguna St,San Francisco,CA,94123,1795000,2,1.0,San Francisco,,2125,1900,7,,,Active,,,http://www.redfin.com/CA/San-Francisco/3132-Laguna-St-94123/home/1941994,San Francisco MLS,421539174,N,Y,37.8000871,-122.4308795
MLS Listing,,Single Family Residential,85 Corona St,San Francisco,CA,94127,1685000,4,2.5,San Francisco,1955,5658,1923,7,862,3,Active,,,http://www.redfin.com/CA/San-Francisco/85-Corona-St-94127/home/815189,San Francisco MLS,421539331,N,Y,37.7231323,-122.4671797
MLS Listing,,Single Family Residential,1282 Stanyan St,San Francisco,CA,94117,2185000,3,2.0,San Francisco,1977,2250,1907,7,1105,,Active,,,http://www.redfin.com/CA/San-Francisco/1282-Stanyan-St-94117/home/602645,San Francisco MLS,421539721,N,Y,37.7600359,-122.4514345
MLS Listing,,Single Family Residential,1755 39th Ave,SAN FRANCISCO,CA,94122,1099950,3,2.0,SAN FRANCISCO,1203,2962,1943,7,914,,Active,,,http://www.redfin.com/CA/San-Francisco/1755-39th-Ave-94122/home/1872935,MLSListings,ML81839738,N,Y,37.7541292,-122.4981939
MLS Listing,,Multi-Family (2-4 Unit),2570 - 2572 Bryant St,San Francisco,CA,94110,1995000,6,3.0,San Francisco,3638,2600,1925,7,548,,Active,,,http://www.redfin.com/CA/San-Francisco/2570-Bryant-St-94110/home/1455182,San Francisco MLS,421539871,N,Y,37.7532556,-122.4094923
MLS Listing,,Condo/Co-op,112 Russ St,SAN FRANCISCO,CA,94103,899000,2,2.0,SAN FRANCISCO,811,,1908,8,1109,250,Active,,,http://www.redfin.com/CA/San-Francisco/112-Russ-St-94103/home/1272631,MLSListings,ML81839663,N,Y,37.7784443,-122.4081135
MLS Listing,,Single Family Residential,1751 41st Ave,San Francisco,CA,94122,1495000,4,2.0,San Francisco,1650,2996,1941,8,906,,Active,,,http://www.redfin.com/CA/San-Francisco/1751-41st-Ave-94122/home/642566,San Francisco MLS,421537952,N,Y,37.7540979,-122.5003772
MLS Listing,,Single Family Residential,749 Guerrero St,San Francisco,CA,94110,1850000,3,1.5,San Francisco,1575,2430,1909,8,1175,,Active,,,http://www.redfin.com/CA/San-Francisco/749-Guerrero-St-94110/home/1422068,San Francisco MLS,421537214,N,Y,37.7592185,-122.4234356
MLS Listing,,Condo/Co-op,1388 Gough St #1005,San Francisco,CA,94109,1495000,2,2.0,San Francisco,1285,25061,1993,8,1163,1476,Active,,,http://www.redfin.com/CA/San-Francisco/1388-Gough-St-94109/unit-1005/home/891433,San Francisco MLS,421538968,N,Y,37.7859193,-122.4244722
MLS Listing,,Multi-Family (2-4 Unit),517 - 519 Fell,San Francisco,CA,94102,1599000,4,4.0,San Francisco,1934,2121,,8,827,,Active,,,http://www.redfin.com/CA/San-Francisco/517-Fell-St-94102/home/970028,San Francisco MLS,421537957,N,Y,37.7752759,-122.4264072
MLS Listing,,Condo/Co-op,2201 Sacramento #102,San Francisco,CA,94115,1395000,2,2.0,San Francisco,1533,6875,1928,8,910,779,Active,,,http://www.redfin.com/CA/San-Francisco/2201-Sacramento-St-94115/unit-102/home/1914943,San Francisco MLS,421539638,N,Y,37.7902551,-122.4292503
MLS Listing,,Single Family Residential,606 Ellis St,SAN FRANCISCO,CA,94109,1449888,3,2.0,SAN FRANCISCO,1635,2186,1907,9,887,,Active,,,http://www.redfin.com/CA/San-Francisco/606-Ellis-St-94109/home/1914627,MLSListings,ML81834128,N,Y,37.7845939,-122.4164264
MLS Listing,,Multi-Family (2-4 Unit),33 - 37 Bernard St,San Francisco,CA,94133,2498000,5,4.0,San Francisco,2616,1376,1903,9,955,,Active,,,http://www.redfin.com/CA/San-Francisco/33-Bernard-St-94133/home/1570804,San Francisco MLS,421528545,N,Y,37.7963161,-122.4140424
MLS Listing,,Single Family Residential,227 Flood Ave,San Francisco,CA,94112,1295000,2,1.0,San Francisco,2129,2809,1908,9,608,,Active,,,http://www.redfin.com/CA/San-Francisco/227-Flood-Ave-94112/home/1351946,San Francisco MLS,421538941,N,Y,37.7297058,-122.4449766
MLS Listing,,Condo/Co-op,301 Main St Unit 8F,San Francisco,CA,94105,960000,1,1.0,San Francisco,800,76210,2008,9,1200,903,Active,,,http://www.redfin.com/CA/San-Francisco/301-Main-St-94105/unit-8F/home/21966810,San Francisco MLS,421523607,N,Y,37.7895974,-122.3911965
MLS Listing,,Condo/Co-op,2230 Pacific Ave #202,San Francisco,CA,94115,799000,1,1.0,San Francisco,755,5308,1949,9,1058,600,Active,,,http://www.redfin.com/CA/San-Francisco/2230-Pacific-Ave-94115/unit-202/home/999137,San Francisco MLS,421539455,N,Y,37.7939728,-122.4321037
MLS Listing,,Condo/Co-op,300 3rd St #923,San Francisco,CA,94107,799000,1,1.0,San Francisco,857,,1990,9,932,723,Active,,,http://www.redfin.com/CA/San-Francisco/300-3rd-St-94107/unit-923/home/2016916,San Francisco MLS,421539211,N,Y,37.7835658,-122.3989483
MLS Listing,,Single Family Residential,881 Foerster St,San Francisco,CA,94127,1775000,3,2.0,San Francisco,1590,5283,,9,1116,,Active,,,http://www.redfin.com/CA/San-Francisco/881-Foerster-St-94127/home/687575,San Francisco MLS,421539047,N,Y,37.7362964,-122.4472183
MLS Listing,,Condo/Co-op,1 Jennings Ct,San Francisco,CA,94124,888000,3,2.0,San Francisco,1567,2424,1995,9,567,100,Active,,,http://www.redfin.com/CA/San-Francisco/1-Jennings-Ct-94124/home/1630919,San Francisco MLS,421539640,N,Y,37.717795,-122.397498
MLS Listing,,Condo/Co-op,601 Van Ness Ave #1009,San Francisco,CA,94102,569000,1,1.0,San Francisco,672,105806,1982,10,847,940,Active,,,http://www.redfin.com/CA/San-Francisco/601-Van-Ness-Ave-94102/unit-1009/home/1825647,San Francisco MLS,421539652,N,Y,37.7813653,-122.4215253
MLS Listing,,Condo/Co-op,2 Mint Plz #1002,San Francisco,CA,94103,1349000,1,1.0,San Francisco,1199,7776,1926,10,1125,1128,Active,,,http://www.redfin.com/CA/San-Francisco/2-Mint-Plz-94103/unit-1002/home/12397844,San Francisco MLS,421539416,N,Y,37.7831186,-122.4076117
MLS Listing,,Condo/Co-op,1369 - A Natoma St,San Francisco,CA,94103,749000,2,1.0,San Francisco,713,1873,1906,10,1050,350,Active,,,http://www.redfin.com/CA/San-Francisco/1369-Natoma-St-94103/home/174961623,San Francisco MLS,421539619,N,Y,37.7672721,-122.418368
MLS Listing,,Condo/Co-op,475 Hampshire St #6,San Francisco,CA,94110,1595000,2,2.5,San Francisco,1953,3000,2001,10,817,665,Active,,,http://www.redfin.com/CA/San-Francisco/475-Hampshire-St-94110/unit-6/home/12399531,San Francisco MLS,421539586,N,Y,37.7634426,-122.4081192
MLS Listing,,Single Family Residential,135 Hearst Ave,San Francisco,CA,94131,1049000,2,1.0,San Francisco,,2813,1926,10,,,Active,,,http://www.redfin.com/CA/San-Francisco/135-Hearst-Ave-94131/home/996724,San Francisco MLS,421539596,N,Y,37.730569,-122.4405973
MLS Listing,,Multi-Family (2-4 Unit),318 - 320 29th Ave,San Francisco,CA,94121,2995000,7,2.0,San Francisco,3965,2996,1909,10,755,,Active,,,http://www.redfin.com/CA/San-Francisco/318-29th-Ave-94121/unit-320/home/110028044,San Francisco MLS,421534430,N,Y,37.7832879,-122.4889318
MLS Listing,,Condo/Co-op,425 1st St #3304,San Francisco,CA,94105,799000,1,1.0,San Francisco,605,56024,2008,10,1321,1128,Active,,,http://www.redfin.com/CA/San-Francisco/425-1st-St-94105/unit-3304/home/17304372,San Francisco MLS,421538424,N,Y,37.785708,-122.392204
MLS Listing,,Single Family Residential,215 Capitol Ave,San Francisco,CA,94112,949000,3,1.0,San Francisco,1089,1663,1955,10,871,,Active,,,http://www.redfin.com/CA/San-Francisco/215-Capitol-Ave-94112/home/831218,San Francisco MLS,421538859,N,Y,37.7126229,-122.4592189
MLS Listing,,Condo/Co-op,637 Powell St #102,San Francisco,CA,94108,1199000,3,2.0,San Francisco,,3920,1923,10,,889,Active,,,http://www.redfin.com/CA/San-Francisco/637-Powell-St-94108/unit-102/home/1973790,San Francisco MLS,421531689,N,Y,37.790666,-122.4090968
MLS Listing,,Condo/Co-op,701 - 1 Hampshire St,San Francisco,CA,94110,589000,1,1.0,San Francisco,600,,1961,10,982,422,Active,,,http://www.redfin.com/CA/San-Francisco/701-Hampshire-St-94110/unit-4/home/174960159,San Francisco MLS,421539550,N,Y,37.7603979,-122.4078827
MLS Listing,,Condo/Co-op,1875 Mission St #406,San Francisco,CA,94103,799000,2,1.0,San Francisco,631,11181,2014,10,1266,594,Active,,,http://www.redfin.com/CA/San-Francisco/1875-Mission-St-94103/unit-406/home/109315389,San Francisco MLS,421538940,N,Y,37.7671306,-122.4194657
MLS Listing,,Condo/Co-op,1 Stanyan St #43,San Francisco,CA,94118,1325000,2,2.0,San Francisco,,,2018,10,,556,Active,,,http://www.redfin.com/CA/San-Francisco/1-Stanyan-St-94118/unit-43/home/173332086,San Francisco MLS,421539508,N,Y,37.7812022,-122.4564551
MLS Listing,,Condo/Co-op,1371 Dolores St,San Francisco,CA,94110,1495000,3,2.0,San Francisco,1506,1993,1949,10,993,350,Active,,,http://www.redfin.com/CA/San-Francisco/1371-Dolores-St-94110/home/40143074,San Francisco MLS,421521818,N,Y,37.74749,-122.424382
MLS Listing,,Single Family Residential,3311 Jackson St,San Francisco,CA,94118,5995000,3,2.5,San Francisco,3026,2495,1928,10,1981,,Active,,,http://www.redfin.com/CA/San-Francisco/3311-Jackson-St-94118/home/1627455,San Francisco MLS,421539201,N,Y,37.7904003,-122.4494299
MLS Listing,,Condo/Co-op,380 10th St #3,San Francisco,CA,94103,1085000,1,2.0,San Francisco,1343,15831,2004,10,808,770,Active,,,http://www.redfin.com/CA/San-Francisco/380-10th-St-94103/unit-3/home/1641227,San Francisco MLS,421539345,N,Y,37.7716576,-122.4118402
MLS Listing,,Single Family Residential,476 Hickory St,San Francisco,CA,94102,1695000,2,2.0,San Francisco,1400,900,1900,10,1211,,Active,,,http://www.redfin.com/CA/San-Francisco/476-Hickory-St-94102/home/990587,San Francisco MLS,421538966,N,Y,37.7750001,-122.4272141
MLS Listing,,Condo/Co-op,235 Berry St #316,San Francisco,CA,94158,1785000,2,2.5,San Francisco,1610,42959,2007,10,1109,792,Active,,,http://www.redfin.com/CA/San-Francisco/235-Berry-St-94158/unit-316/home/22889203,San Francisco MLS,421538642,N,Y,37.7748669,-122.3941757
MLS Listing,,Single Family Residential,649 Darien Way,San Francisco,CA,94127,2200000,3,2.0,San Francisco,2103,2905,1927,10,1046,,Active,,,http://www.redfin.com/CA/San-Francisco/649-Darien-Way-94127/home/1112687,San Francisco MLS,421538393,N,Y,37.7313631,-122.4643935
MLS Listing,,Condo/Co-op,1250 Clay St #204,San Francisco,CA,94108,699000,1,1.0,San Francisco,,22394,1950,10,,675,Active,,,http://www.redfin.com/CA/San-Francisco/1250-Clay-St-94108/unit-204/home/909663,San Francisco MLS,421536676,N,Y,37.7935566,-122.4136764
MLS Listing,,Single Family Residential,1334 Potrero Ave,San Francisco,CA,94110,1295000,2,2.5,San Francisco,1365,2866,1931,10,949,,Active,,,http://www.redfin.com/CA/San-Francisco/1334-Potrero-Ave-94110/home/1157959,San Francisco MLS,507788,N,Y,37.7507902,-122.4064418
MLS Listing,,Multi-Family (2-4 Unit),3159-3163 24th St,SAN FRANCISCO,CA,94110,2698000,7,3.0,SAN FRANCISCO,5040,2328,1900,10,535,,Active,,,http://www.redfin.com/CA/San-Francisco/3159-24th-St-94110/home/797951,MLSListings,ML81839401,N,Y,37.7521959,-122.4154651
MLS Listing,,Single Family Residential,1904 9th Ave,San Francisco,CA,94116,1995000,4,3.5,San Francisco,2395,2374,1913,10,833,,Active,,,http://www.redfin.com/CA/San-Francisco/1904-9th-Ave-94116/home/2024132,San Francisco MLS,421539380,N,Y,37.7526565,-122.4653664
MLS Listing,,Condo/Co-op,950 Tennessee St #318,San Francisco,CA,94107,1820000,2,2.0,San Francisco,1334,,2020,10,1364,738,Active,,,http://www.redfin.com/CA/San-Francisco/950-Tennessee-St-94107/unit-318/home/174958952,San Francisco MLS,421539370,N,Y,37.7596747,-122.3898245
MLS Listing,,Multi-Family (2-4 Unit),3021 22nd St,San Francisco,CA,94110,1799997,3,,San Francisco,2422,1459,1900,10,743,,Active,,,http://www.redfin.com/CA/San-Francisco/3021-22nd-St-94110/home/2031832,San Francisco MLS,421517412,N,Y,37.7555029,-122.4149361
MLS Listing,,Condo/Co-op,950 Tennessee St #213,San Francisco,CA,94107,1805000,2,2.5,San Francisco,1373,,2020,10,1315,738,Active,,,http://www.redfin.com/CA/San-Francisco/950-Tennessee-St-94107/unit-213/home/174958839,San Francisco MLS,421539346,N,Y,37.7596747,-122.3898245
MLS Listing,,Condo/Co-op,573 14th Ave,San Francisco,CA,94118,1575000,2,1.5,San Francisco,1788,3060,1922,10,881,,Active,,,http://www.redfin.com/CA/San-Francisco/573-14th-Ave-94118/home/1261559,San Francisco MLS,421539336,N,Y,37.777412,-122.472961
MLS Listing,,Single Family Residential,1112 - 1114 18th St,San Francisco,CA,94107,3294000,7,3.0,San Francisco,4080,2500,1906,10,807,,Active,,,http://www.redfin.com/CA/San-Francisco/1112-18th-St-94107/home/1734928,San Francisco MLS,421537493,N,Y,37.7629604,-122.3940054
MLS Listing,,Condo/Co-op,1160 Mission St #803,San Francisco,CA,94103,748000,1,1.0,San Francisco,755,43557,2008,10,991,787,Active,,,http://www.redfin.com/CA/San-Francisco/1160-Mission-St-94103/unit-803/home/17306812,San Francisco MLS,421539292,N,Y,37.7786972,-122.4126145
MLS Listing,,Single Family Residential,280 Monterey Blvd,San Francisco,CA,94131,1799000,5,3.0,San Francisco,2589,2486,2003,10,695,,Active,,,http://www.redfin.com/CA/San-Francisco/280-Monterey-Blvd-94131/unit-A/home/11743381,San Francisco MLS,421539273,N,Y,37.731848,-122.441448
MLS Listing,,Single Family Residential,470 Hearst Ave,San Francisco,CA,94112,2250000,4,3.0,San Francisco,2070,2809,1923,10,1087,,Active,,,http://www.redfin.com/CA/San-Francisco/470-Hearst-Ave-94112/home/1405163,San Francisco MLS,421537786,N,Y,37.730943,-122.4482073
MLS Listing,,Condo/Co-op,2044 Green St,San Francisco,CA,94123,3650000,3,3.5,San Francisco,2877,3435,1890,10,1269,275,Active,,,http://www.redfin.com/CA/San-Francisco/2044-Green-St-94123/home/1522738,San Francisco MLS,421535595,N,Y,37.7967579,-122.432831
MLS Listing,,Single Family Residential,278 Monterey Blvd,San Francisco,CA,94131,1199000,3,2.5,San Francisco,1776,2486,2003,10,675,,Active,,,http://www.redfin.com/CA/San-Francisco/278-Monterey-Blvd-94131/home/28896769,San Francisco MLS,421539025,N,Y,37.7317874,-122.4414487
MLS Listing,,Condo/Co-op,875 California St #202,San Francisco,CA,94108,2850000,2,2.0,San Francisco,1474,9448,,10,1934,1840,Active,,,http://www.redfin.com/CA/San-Francisco/875-California-St-94108/unit-202/home/174958063,San Francisco MLS,421531421,N,Y,37.7918051,-122.4087206
MLS Listing,,Condo/Co-op,45 Bartlett St #805,San Francisco,CA,94110,1295000,2,2.0,San Francisco,916,23803,2014,10,1414,728,Active,,,http://www.redfin.com/CA/San-Francisco/45-Bartlett-St-94110/unit-805/home/109464653,San Francisco MLS,421537633,N,Y,37.7558162,-122.4197494
MLS Listing,,Single Family Residential,7 Wool St,San Francisco,CA,94110,1999000,3,2.5,San Francisco,,1908,1900,10,,,Active,,,http://www.redfin.com/CA/San-Francisco/7-Wool-St-94110/home/1094929,San Francisco MLS,421538362,N,Y,37.7414387,-122.4167847
MLS Listing,,Condo/Co-op,2171 Bay St #1,San Francisco,CA,94123,2550000,3,2.0,San Francisco,,3346,1985,10,,500,Active,,,http://www.redfin.com/CA/San-Francisco/2171-Bay-St-94123/unit-1/home/1127554,San Francisco MLS,421535358,N,Y,37.8017106,-122.4427179
MLS Listing,,Single Family Residential,972 Plymouth Ave,San Francisco,CA,94112,998000,2,2.0,San Francisco,1100,2809,1907,10,907,,Active,,,http://www.redfin.com/CA/San-Francisco/972-Plymouth-Ave-94112/home/819086,San Francisco MLS,421528109,N,Y,37.7195172,-122.4559717
MLS Listing,,Condo/Co-op,55 Red Rock #107,San Francisco,CA,94131,495000,0,1.0,San Francisco,592,,1972,10,836,512,Active,,,http://www.redfin.com/CA/San-Francisco/55-Red-Rock-Way-94131/unit-107/home/174957343,San Francisco MLS,421539080,N,Y,37.7459864,-122.4410176
MLS Listing,,Condo/Co-op,280 Spear St Unit 10A,San Francisco,CA,94105,1649000,2,2.0,San Francisco,1453,47916,,10,1135,1284,Active,,,http://www.redfin.com/CA/San-Francisco/280-Spear-St-94105/unit-10A/home/167047946,San Francisco MLS,421539157,N,Y,37.7903739,-122.3913812
MLS Listing,,Condo/Co-op,5900 3rd St #2424,San Francisco,CA,94124,649000,1,1.0,San Francisco,775,,2010,10,837,404,Active,,,http://www.redfin.com/CA/San-Francisco/5900-3rd-St-94124/unit-2424/home/40629229,San Francisco MLS,421520153,N,Y,37.724666,-122.395268
MLS Listing,,Condo/Co-op,401 Harrison Unit 32B,San Francisco,CA,94105,2100000,2,2.0,San Francisco,1311,,2014,10,1602,1418,Active,,,http://www.redfin.com/CA/San-Francisco/401-Harrison-St-94105/unit-32B/home/144064276,San Francisco MLS,421538752,N,Y,37.7864989,-122.3921487
MLS Listing,,Condo/Co-op,210 Valley St Unit A,San Francisco,CA,94131,995000,2,1.0,San Francisco,,3003,1900,10,,240,Active,,,http://www.redfin.com/CA/San-Francisco/210-Valley-St-94131/unit-A/home/1823428,San Francisco MLS,421536557,N,Y,37.7447085,-122.4273093
MLS Listing,,Single Family Residential,21 Roscoe St,San Francisco,CA,94110,1349000,2,2.0,San Francisco,1191,1261,1900,10,1133,,Active,,,http://www.redfin.com/CA/San-Francisco/21-Roscoe-St-94110/home/1896401,San Francisco MLS,510242,N,Y,37.7343567,-122.4186209
MLS Listing,,Condo/Co-op,250 King St #468,San Francisco,CA,94107,698000,1,1.0,San Francisco,795,213232,2004,10,878,801,Active,,,http://www.redfin.com/CA/San-Francisco/250-King-St-94107/unit-468/home/22889186,San Francisco MLS,421534820,N,Y,37.7781222,-122.3932903
MLS Listing,,Condo/Co-op,55 S Western Shore Ln #4,San Francisco,CA,94115,747000,3,2.0,San Francisco,1050,999,,10,711,,Active,,,http://www.redfin.com/CA/San-Francisco/55-Western-Shore-Ln-94115/unit-4/home/12401323,BAREIS,421536574,N,Y,37.784243,-122.428618
MLS Listing,,Multi-Family (5+ Unit),3001 25th St,San Francisco,CA,94110,2295000,4,2.0,San Francisco,2790,2996,1900,10,823,,Active,,,http://www.redfin.com/CA/San-Francisco/3001-25th-St-94110/home/736857,San Francisco MLS,421539021,N,Y,37.750988,-122.4101333
MLS Listing,,Condo/Co-op,953 Union St,San Francisco,CA,94133,1750000,3,2.0,San Francisco,1584,,1907,11,1105,287,Active,,,http://www.redfin.com/CA/San-Francisco/953-Union-St-94133/home/1180010,San Francisco MLS,421539088,N,Y,37.7995111,-122.4149928
MLS Listing,,Condo/Co-op,162 Beaver St,San Francisco,CA,94114,1649000,2,1.0,San Francisco,1685,,,11,979,200,Active,,,http://www.redfin.com/CA/San-Francisco/162-Beaver-St-94114/home/934291,San Francisco MLS,421538753,N,Y,37.7652439,-122.4365962
MLS Listing,,Single Family Residential,1310 Bowdoin St,San Francisco,CA,94134,1099000,4,2.0,San Francisco,1794,1751,1969,11,613,,Active,,,http://www.redfin.com/CA/San-Francisco/1310-Bowdoin-St-94134/home/782130,San Francisco MLS,421538973,N,Y,37.7194222,-122.4080348
MLS Listing,,Condo/Co-op,451 Kansas St #389,San Francisco,CA,94107,640000,0,1.0,San Francisco,495,,,11,,478,Active,,,http://www.redfin.com/CA/San-Francisco/451-Kansas-St-94107/unit-389/home/23424285,MetroList,421536630,N,Y,37.7645365,-122.4032786
MLS Listing,,Condo/Co-op,50 Lansing St #408,San Francisco,CA,94105,799000,1,1.0,San Francisco,847,20082,2006,11,943,836,Active,,,http://www.redfin.com/CA/San-Francisco/50-Lansing-St-94105/unit-408/home/22854669,San Francisco MLS,421536579,N,Y,37.786127,-122.3942141
MLS Listing,,Multi-Family (2-4 Unit),36 - 38 Camp St,San Francisco,CA,94110,4295000,6,,San Francisco,3998,2979,1922,11,1074,,Active,,,http://www.redfin.com/CA/San-Francisco/36-Camp-St-94110/home/1405312,San Francisco MLS,421529050,N,Y,37.7642163,-122.4234698
MLS Listing,,Single Family Residential,2543 16th Ave,San Francisco,CA,94116,1095000,3,1.5,San Francisco,1650,2996,1926,11,664,,Active,,,http://www.redfin.com/CA/San-Francisco/2543-16th-Ave-94116/home/1229811,San Francisco MLS,512140,N,Y,37.7404914,-122.4726367
MLS Listing,,Condo/Co-op,22 Presidio Ave,San Francisco,CA,94115,3575000,3,2.5,San Francisco,2380,3626,1909,11,1502,,Active,,,http://www.redfin.com/CA/San-Francisco/22-Presidio-Ave-94115/home/11743038,San Francisco MLS,421538534,N,Y,37.791495,-122.447322
MLS Listing,,Condo/Co-op,534 Shotwell St #1,San Francisco,CA,94110,869000,2,1.0,San Francisco,,3733,1900,11,,350,Active,,,http://www.redfin.com/CA/San-Francisco/534-Shotwell-St-94110/unit-1/home/109030658,San Francisco MLS,421538871,N,Y,37.7598717,-122.4161095
MLS Listing,,Condo/Co-op,2225 23rd St #107,San Francisco,CA,94107,599000,1,1.0,San Francisco,602,80224,1989,11,995,539,Active,,,http://www.redfin.com/CA/San-Francisco/2225-23rd-St-94107/unit-107/home/906696,San Francisco MLS,421538472,N,Y,37.7543499,-122.4022071
MLS Listing,,Condo/Co-op,950 Tennessee St #122,San Francisco,CA,94107,1104000,2,2.0,San Francisco,870,,2020,11,1269,577,Active,,,http://www.redfin.com/CA/San-Francisco/950-Tennessee-St-94107/unit-122/home/170136824,San Francisco MLS,421538858,N,Y,37.7596747,-122.3898245
MLS Listing,,Single Family Residential,517 Nevada St,San Francisco,CA,94110,1295000,4,2.0,San Francisco,1645,1750,1900,11,787,,Active,,,http://www.redfin.com/CA/San-Francisco/517-Nevada-St-94110/home/765735,San Francisco MLS,421537691,N,Y,37.7354818,-122.4116261
MLS Listing,,Condo/Co-op,950 Tennessee St #306,San Francisco,CA,94107,668000,0,1.0,San Francisco,460,,2020,11,1452,435,Active,,,http://www.redfin.com/CA/San-Francisco/950-Tennessee-St-94107/unit-306/home/174945866,San Francisco MLS,421538800,N,Y,37.7596747,-122.3898245
MLS Listing,,Condo/Co-op,950 Tennessee St #104,San Francisco,CA,94107,639000,0,1.0,San Francisco,486,,2020,11,1315,435,Active,,,http://www.redfin.com/CA/San-Francisco/950-Tennessee-St-94107/unit-104/home/171422404,San Francisco MLS,421538779,N,Y,37.7596747,-122.3898245
MLS Listing,,Condo/Co-op,988 Fulton St #326,San Francisco,CA,94117,565000,1,1.0,San Francisco,417,41262,1999,11,1355,415,Active,,,http://www.redfin.com/CA/San-Francisco/988-Fulton-St-94117/unit-326/home/22886069,San Francisco MLS,421538648,N,Y,37.7777325,-122.4326346
MLS Listing,,Condo/Co-op,77 Dow Pl #305,San Francisco,CA,94107,849000,1,1.5,San Francisco,985,18962,2002,11,862,884,Active,,,http://www.redfin.com/CA/San-Francisco/77-Dow-Pl-94107/unit-305/home/1450021,San Francisco MLS,421537696,N,Y,37.7840596,-122.3966174
MLS Listing,,Single Family Residential,2223 27th Ave,San Francisco,CA,94116,1750000,3,2.0,San Francisco,2378,3000,1940,11,736,,Active,,,http://www.redfin.com/CA/San-Francisco/2223-27th-Ave-94116/home/933888,BAREIS,421538735,N,Y,37.7459119,-122.4847945
MLS Listing,,Single Family Residential,871 Foerster St,SAN FRANCISCO,CA,94127,2097000,4,3.5,SAN FRANCISCO,2996,2957,1981,11,700,,Active,,,http://www.redfin.com/CA/San-Francisco/871-Foerster-St-94127/home/1766706,MLSListings,ML81839136,N,Y,37.7363848,-122.4473944
MLS Listing,,Condo/Co-op,470 Corbett Ave,San Francisco,CA,94114,995000,2,1.0,San Francisco,1000,2624,1948,11,995,123,Active,,,http://www.redfin.com/CA/San-Francisco/470-Corbett-Ave-94114/home/2025835,San Francisco MLS,421538261,N,Y,37.7576394,-122.4454298
MLS Listing,,Condo/Co-op,195 7th St #309,San Francisco,CA,94103,399000,0,1.0,San Francisco,307,4500,1991,11,1300,390,Active,,,http://www.redfin.com/CA/San-Francisco/195-7th-St-94103/unit-309/home/1272601,San Francisco MLS,421525042,N,Y,37.7783013,-122.4094944
MLS Listing,,Condo/Co-op,161 Clifford Ter,San Francisco,CA,94117,3200000,4,3.0,San Francisco,2415,2634,1926,11,1325,345,Active,,,http://www.redfin.com/CA/San-Francisco/161-Clifford-Ter-94117/home/12354608,San Francisco MLS,421524457,N,Y,37.7640217,-122.4453489
MLS Listing,,Condo/Co-op,338 Main St Unit 35E,San Francisco,CA,94105,3595000,3,3.0,San Francisco,1791,,2016,11,2007,1325,Active,,,http://www.redfin.com/CA/San-Francisco/338-Main-St-94105/unit-35E/home/110052500,San Francisco MLS,421529826,N,Y,37.7886733,-122.3914178
MLS Listing,,Multi-Family (2-4 Unit),175 28th St,San Francisco,CA,94131,2195000,6,4.0,San Francisco,3630,2850,1963,11,605,,Active,,,http://www.redfin.com/CA/San-Francisco/175-28th-St-94131/home/1869384,San Francisco MLS,421535634,N,Y,37.7451665,-122.4260495
MLS Listing,,Condo/Co-op,1282 Hayes St #200,San Francisco,CA,94117,995000,1,1.0,San Francisco,,2025,2019,11,,752,Active,,,http://www.redfin.com/CA/San-Francisco/1282-Hayes-St-94117/unit-200/home/174943651,San Francisco MLS,421538170,N,Y,37.775193,-122.4372745
MLS Listing,,Single Family Residential,6418 California St,San Francisco,CA,94121,1699000,3,2.0,San Francisco,1780,,1912,11,954,,Active,,,http://www.redfin.com/CA/San-Francisco/6418-California-St-94121/home/1724287,San Francisco MLS,421535434,N,Y,37.7840412,-122.486503
MLS Listing,,Condo/Co-op,2200 Beach St #204,San Francisco,CA,94123,1295000,1,1.0,San Francisco,980,4538,1931,12,1321,495,Active,,,http://www.redfin.com/CA/San-Francisco/2200-Beach-St-94123/unit-204/home/114066644,San Francisco MLS,421538592,N,Y,37.803651,-122.4455074
MLS Listing,,Condo/Co-op,301 Main St Ph 36E,San Francisco,CA,94105,3295000,3,3.0,San Francisco,1679,76210,2008,12,1962,1118,Active,,,http://www.redfin.com/CA/San-Francisco/301-Main-St-94105/unit-36E/home/21966751,San Francisco MLS,421531674,N,Y,37.7895974,-122.3911965
MLS Listing,,Condo/Co-op,877 Indiana St #106,SAN FRANCISCO,CA,94107,1250000,1,2.0,SAN FRANCISCO,1076,,2009,12,1162,553,Active,,,http://www.redfin.com/CA/San-Francisco/877-Indiana-St-94107/unit-106/home/22898620,MLSListings,ML81839073,N,Y,37.759303,-122.391126
MLS Listing,,Condo/Co-op,93 6th Ave,San Francisco,CA,94118,1825000,2,2.0,San Francisco,1740,,1909,12,1049,444,Active,,,http://www.redfin.com/CA/San-Francisco/93-6th-Ave-94118/home/607120,San Francisco MLS,421538007,N,Y,37.786839,-122.46498
MLS Listing,,Single Family Residential,4049 19th Ave,San Francisco,CA,94132,1299000,5,3.0,San Francisco,2356,1762,,12,551,,Active,,,http://www.redfin.com/CA/San-Francisco/4049-19th-Ave-94132/home/889157,San Francisco MLS,421538134,N,Y,37.715417,-122.471205
MLS Listing,,Condo/Co-op,388 Fulton St #301,San Francisco,CA,94102,416018,2,1.0,San Francisco,708,12509,2016,12,588,638,Active,,,http://www.redfin.com/CA/San-Francisco/388-Fulton-St-94102/unit-301/home/144063606,San Francisco MLS,421538474,N,Y,37.7790326,-122.4231449
MLS Listing,,Condo/Co-op,2412 Harrison St #201,San Francisco,CA,94110,1095000,1,2.0,San Francisco,1163,15313,2002,12,942,730,Active,,,http://www.redfin.com/CA/San-Francisco/2412-Harrison-St-94110/unit-201/home/1391023,San Francisco MLS,421538112,N,Y,37.7585658,-122.4129303
MLS Listing,,Condo/Co-op,1257 Chestnut St #2,SAN FRANCISCO,CA,94109,1275000,1,1.0,SAN FRANCISCO,1248,3332,1923,12,1022,425,Active,,,http://www.redfin.com/CA/San-Francisco/1257-Chestnut-St-94109/unit-2/home/1010437,MLSListings,ML81839023,N,Y,37.8022382,-122.4238714
MLS Listing,,Condo/Co-op,75 Howard St #409,San Francisco,CA,94105,1250000,1,1.0,San Francisco,880,,,12,1420,2584,Active,,,http://www.redfin.com/CA/San-Francisco/75-Howard-St-94105/unit-409/home/174942423,San Francisco MLS,421537992,N,Y,37.7915968,-122.3915948
MLS Listing,,Single Family Residential,2531 34th Ave,San Francisco,CA,94116,1095000,4,2.0,San Francisco,1458,3000,1931,12,751,,Active,,,http://www.redfin.com/CA/San-Francisco/2531-34th-Ave-94116/home/1790204,San Francisco MLS,421538262,N,Y,37.739785,-122.4918584
MLS Listing,,Single Family Residential,2350 42nd Ave,San Francisco,CA,94116,1295000,4,3.0,San Francisco,1960,2996,1967,12,661,,Active,,,http://www.redfin.com/CA/San-Francisco/2350-42nd-Ave-94116/home/1333856,San Francisco MLS,421535295,N,Y,37.7428821,-122.5001328
MLS Listing,,Single Family Residential,214 States St,San Francisco,CA,94114,1495000,3,,San Francisco,1500,3123,1910,12,997,,Active,,,http://www.redfin.com/CA/San-Francisco/214-States-St-94114/home/954339,San Francisco MLS,421538283,N,Y,37.7640399,-122.4399406
MLS Listing,,Single Family Residential,408 Sweeny St,San Francisco,CA,94134,1088888,0,,San Francisco,1170,3497,1939,12,931,,Active,,,http://www.redfin.com/CA/San-Francisco/408-Sweeny-St-94134/home/768253,San Francisco MLS,421538280,N,Y,37.7315603,-122.4133888
MLS Listing,,Condo/Co-op,338 Spear St Unit 11C,San Francisco,CA,94105,925000,1,1.0,San Francisco,852,76210,,12,1086,918,Active,,,http://www.redfin.com/CA/San-Francisco/338-Spear-St-94105/unit-11C/home/21965801,San Francisco MLS,421535665,N,Y,37.7894137,-122.3906433
MLS Listing,,Multi-Family (2-4 Unit),443 Chestnut St,San Francisco,CA,94133,2800000,9,4.0,San Francisco,4542,3118,1907,12,616,,Active,,,http://www.redfin.com/CA/San-Francisco/443-Chestnut-St-94133/home/1474488,San Francisco MLS,421529432,N,Y,37.8038209,-122.410622
MLS Listing,,Single Family Residential,535 Teresita Blvd,San Francisco,CA,94127,2650000,5,4.5,San Francisco,3184,4983,,12,832,,Active,,,http://www.redfin.com/CA/San-Francisco/535-Teresita-Blvd-94127/home/1361176,San Francisco MLS,421536632,N,Y,37.7392237,-122.445994
MLS Listing,,Single Family Residential,918 Divisadero St,San Francisco,CA,94115,4900000,7,4.5,San Francisco,5041,2500,1890,12,972,,Active,,,http://www.redfin.com/CA/San-Francisco/918-Divisadero-St-94115/home/592801,San Francisco MLS,421533388,N,Y,37.7781688,-122.4381554
MLS Listing,,Multi-Family (2-4 Unit),550 - 552 Grant Ave,San Francisco,CA,94108,2380000,5,,San Francisco,2950,1000,1921,12,807,,Active,,,http://www.redfin.com/CA/San-Francisco/550-Grant-Ave-94108/home/147067273,San Francisco MLS,421537980,N,Y,37.792116,-122.405704
MLS Listing,,Single Family Residential,730 Anderson St,San Francisco,CA,94110,927888,2,2.0,San Francisco,960,1751,1907,12,967,,Active,,,http://www.redfin.com/CA/San-Francisco/730-Anderson-St-94110/home/1703969,San Francisco MLS,421538081,N,Y,37.7342518,-122.4158113
MLS Listing,,Single Family Residential,1375 Kansas St,San Francisco,CA,94107,1649000,3,2.0,San Francisco,1724,1873,1910,13,956,,Active,,,http://www.redfin.com/CA/San-Francisco/1375-Kansas-St-94107/home/1487518,San Francisco MLS,421537636,N,Y,37.7523189,-122.4021937
MLS Listing,,Condo/Co-op,555 4th St #911,San Francisco,CA,94107,774000,1,1.0,San Francisco,,63237,2006,13,,630,Active,,,http://www.redfin.com/CA/San-Francisco/555-4th-St-94107/unit-911/home/22854999,San Francisco MLS,421537575,N,Y,37.7793967,-122.3967727
MLS Listing,,Multi-Family (2-4 Unit),1739 - Cabrillo Cabrillo St,San Francisco,CA,94121,1999800,2,4.0,San Francisco,3380,2495,1972,13,592,,Active,,,http://www.redfin.com/CA/San-Francisco/1739-Cabrillo-St-94121/home/1937970,San Francisco MLS,421537962,N,Y,37.7746127,-122.4775719
MLS Listing,,Condo/Co-op,338 Main St Unit 17F,San Francisco,CA,94105,1595000,2,2.0,San Francisco,1181,,2016,13,1351,1214,Active,,,http://www.redfin.com/CA/San-Francisco/338-Main-St-94105/unit-17F/home/109315327,San Francisco MLS,421526906,N,Y,37.7886733,-122.3914178
MLS Listing,,Multi-Family (5+ Unit),936 - 940 Geary St,San Francisco,CA,94109,6495000,0,,San Francisco,19680,3616,1923,13,330,,Active,,,http://www.redfin.com/CA/San-Francisco/936-Geary-St-94109/home/28890957,San Francisco MLS,421536135,N,Y,37.7862756,-122.418777
MLS Listing,,Condo/Co-op,160 Stoneridge Ln,San Francisco,CA,94134,788000,2,2.0,San Francisco,1068,,1994,13,738,437,Active,,,http://www.redfin.com/CA/San-Francisco/160-Stoneridge-Ln-94134/home/1934511,San Francisco MLS,421537996,N,Y,37.71023,-122.426265
MLS Listing,,Condo/Co-op,946 Stockton Unit 11C,San Francisco,CA,94106,760000,2,1.5,San Francisco,690,,1970,13,1101,651,Active,,,http://www.redfin.com/CA/San-Francisco/946-Stockton-St-94108/unit-11C/home/545049,San Francisco MLS,421538004,N,Y,37.7947159,-122.4078309
MLS Listing,,Condo/Co-op,781 Burrows St #3,San Francisco,CA,94134,899995,2,1.0,Portola,772,,1986,13,1166,365,Active,,,http://www.redfin.com/CA/San-Francisco/781-Burrows-St-94134/unit-3/home/777973,"bridgeMLS, Bay East AOR, or Contra Costa AOR",40945288,N,Y,37.726444,-122.410737
MLS Listing,,Condo/Co-op,488 Folsom St #4903,San Francisco,CA,94105,3585000,2,2.5,San Francisco,1832,,2019,13,1957,1819,Active,,,http://www.redfin.com/CA/San-Francisco/488-Folsom-St-94105/unit-4903/home/169571724,San Francisco MLS,421537945,N,Y,37.7875077,-122.3944713
MLS Listing,,Single Family Residential,275 Shipley St,San Francisco,CA,94107,4000000,3,3.5,San Francisco,2915,3750,1906,13,1372,,Active,,,http://www.redfin.com/CA/San-Francisco/275-Shipley-94107/home/722683,San Francisco MLS,421535261,N,Y,37.7785007,-122.4043675
MLS Listing,,Condo/Co-op,501 Crescent Way #5303,San Francisco,CA,94134,588722,2,2.0,San Francisco,1166,,2007,13,505,599,Active,,,http://www.redfin.com/CA/San-Francisco/501-Crescent-Way-94134/unit-5303/home/12402497,San Francisco MLS,421537937,N,Y,37.7120178,-122.3885605
MLS Listing,,Single Family Residential,135 Alpha St,SAN FRANCISCO,CA,94134,798000,2,1.0,SAN FRANCISCO,1110,2326,1962,13,719,,Active,,,http://www.redfin.com/CA/San-Francisco/135-Alpha-St-94134/home/1318628,MLSListings,ML81838763,N,Y,37.7141154,-122.4039637
MLS Listing,,Condo/Co-op,55 Page St #218,San Francisco,CA,94102,329000,1,1.0,San Francisco,448,,2008,13,734,,Active,,,http://www.redfin.com/CA/San-Francisco/55-Page-St-94102/unit-218/home/17304807,San Francisco MLS,512359,N,Y,37.7737829,-122.4218176
MLS Listing,,Condo/Co-op,49 - A Albion St,San Francisco,CA,94103,1200000,3,2.0,San Francisco,1330,2221,1908,13,902,,Active,,,http://www.redfin.com/CA/San-Francisco/49-Albion-St-94103/home/1905679,San Francisco MLS,421517743,N,Y,37.7656928,-122.4229731
MLS Listing,,Condo/Co-op,51 - A Albion St,San Francisco,CA,94103,950000,2,2.0,San Francisco,1085,2221,1908,13,876,,Active,,,http://www.redfin.com/CA/San-Francisco/51-Albion-St-94103/home/174926830,San Francisco MLS,421517746,N,Y,37.7656398,-122.4231165
MLS Listing,,Condo/Co-op,220 Lombard St #117,San Francisco,CA,94111,595000,1,1.0,San Francisco,654,,1993,13,910,880,Active,,,http://www.redfin.com/CA/San-Francisco/220-Lombard-St-94111/unit-117/home/2026018,San Francisco MLS,421537827,N,Y,37.8042436,-122.4054002
MLS Listing,,Multi-Family (2-4 Unit),4137 - 4139 20th St,San Francisco,CA,94114,1875000,3,2.0,San Francisco,2294,2848,1900,13,817,,Active,,,http://www.redfin.com/CA/San-Francisco/4137-20th-St-94114/home/1073694,San Francisco MLS,421535571,N,Y,37.7575239,-122.4333313
MLS Listing,,Single Family Residential,71 Curtis St Unit 71A,San Francisco,CA,94112,1198000,3,2.0,San Francisco,2177,2495,1925,13,550,,Active,,,http://www.redfin.com/CA/San-Francisco/71-Curtis-St-94112/unit-71A/home/1728194,San Francisco MLS,421535262,N,Y,37.7136214,-122.4394784
MLS Listing,,Condo/Co-op,5900 3rd St #2221,San Francisco,CA,94124,770000,2,2.0,San Francisco,,,2009,13,,472,Active,,,http://www.redfin.com/CA/San-Francisco/5900-3rd-St-94124/unit-2221/home/40629196,San Francisco MLS,421531102,N,Y,37.724666,-122.395268
MLS Listing,,Single Family Residential,37 Sussex St,San Francisco,CA,94131,2200000,3,1.0,San Francisco,1189,1990,1951,14,1850,,Active,,,http://www.redfin.com/CA/San-Francisco/37-Sussex-St-94131/home/938107,San Francisco MLS,421532967,N,Y,37.7362095,-122.4335194
MLS Listing,,Condo/Co-op,1114 18th St,San Francisco,CA,94107,2395000,4,2.0,San Francisco,2693,2500,1906,14,889,,Active,,,http://www.redfin.com/CA/San-Francisco/1114-18th-St-94107/home/174923054,San Francisco MLS,421537587,N,Y,37.7629136,-122.3941071
MLS Listing,,Other,69 Pearl St,SAN FRANCISCO,CA,94103,1348000,4,3.0,SAN FRANCISCO,1763,,1907,14,765,325,Active,,,http://www.redfin.com/CA/San-Francisco/69-Pearl-St-94103/unit-73A/home/895945,MLSListings,ML81838653,N,Y,37.77031,-122.423664
MLS Listing,,Condo/Co-op,1834 Mason St,San Francisco,CA,94103,1795000,2,2.0,San Francisco,1594,4673,,14,1126,618,Active,,,http://www.redfin.com/CA/San-Francisco/1834-A-Mason-St-94133/home/174997908,San Francisco MLS,421532390,N,Y,37.8006018,-122.4122252
MLS Listing,,Condo/Co-op,712 Bryant St #4,San Francisco,CA,94107,1649999,2,2.5,San Francisco,2097,7747,2001,14,787,833,Active,,,http://www.redfin.com/CA/San-Francisco/712-Bryant-St-94107/unit-4/home/12397087,BAREIS,421537700,N,Y,37.7777935,-122.401021
MLS Listing,,Condo/Co-op,1925 Gough St #41,San Francisco,CA,94109,4950000,3,3.5,San Francisco,4000,,1908,14,1238,2467,Active,,,http://www.redfin.com/CA/San-Francisco/1925-Gough-St-94109/unit-41/home/12400277,San Francisco MLS,421537697,N,Y,37.7915055,-122.4261534
MLS Listing,,Multi-Family (5+ Unit),2433 Polk St,San Francisco,CA,94109,5000000,5,,San Francisco,5883,2527,1912,14,850,,Active,,,http://www.redfin.com/CA/San-Francisco/2433-Polk-St-94109/home/1586973,San Francisco MLS,421537638,N,Y,37.7991723,-122.422755
